timestamp,ins_status,latitude,longitude,altitude,northing,easting,down,utm_zone,velocity_north,velocity_east,velocity_down,roll,pitch,yaw
1403713563274004,INS_SOLUTION_GOOD,51.760476,-1.260171,111.451209,5735830.290927,620072.318447,-111.451209,30U,8.761535,-0.537506,-0.047734,0.012278,-0.006938,6.239075
1403713563293516,INS_SOLUTION_GOOD,51.760478,-1.260171,111.452260,5735830.465823,620072.303641,-111.452260,30U,8.759921,-0.529323,-0.060075,0.012353,-0.006810,6.239256
1403713563313597,INS_SOLUTION_GOOD,51.760479,-1.260171,111.453525,5735830.640612,620072.288976,-111.453525,30U,8.755208,-0.521223,-0.061887,0.012508,-0.006810,6.239359
1403713563334021,INS_SOLUTION_GOOD,51.760481,-1.260172,111.454628,5735830.815402,620072.274379,-111.454628,30U,8.750967,-0.515920,-0.047132,0.012671,-0.006649,6.239416
1403713563353393,INS_SOLUTION_GOOD,51.760482,-1.260172,111.455451,5735830.989973,620072.259926,-111.455451,30U,8.740466,-0.512194,-0.039343,0.012981,-0.006261,6.239467
1403713563373400,INS_SOLUTION_GOOD,51.760484,-1.260172,111.456346,5735831.164325,620072.245617,-111.456346,30U,8.737836,-0.507454,-0.047875,0.013082,-0.005929,6.239513
1403713563393400,INS_SOLUTION_GOOD,51.760486,-1.260172,111.457432,5735831.338788,620072.231304,-111.457432,30U,8.732432,-0.506497,-0.059162,0.012972,-0.005806,6.239573
1403713563413398,INS_SOLUTION_GOOD,51.760487,-1.260172,111.458616,5735831.513031,620072.217066,-111.458616,30U,8.725558,-0.503936,-0.056720,0.012546,-0.005721,6.239638
1403713563434349,INS_SOLUTION_GOOD,51.760489,-1.260172,111.459697,5735831.687160,620072.202762,-111.459697,30U,8.721489,-0.511151,-0.051667,0.012087,-0.005647,6.239738
1403713563454339,INS_SOLUTION_GOOD,51.760490,-1.260172,111.460739,5735831.861175,620072.188322,-111.460739,30U,8.713631,-0.515388,-0.052510,0.011696,-0.005609,6.239869
1403713563473530,INS_SOLUTION_GOOD,51.760492,-1.260173,111.461767,5735832.035079,620072.173885,-111.461767,30U,8.710045,-0.517973,-0.049016,0.011498,-0.005645,6.239997
1403713563493276,INS_SOLUTION_GOOD,51.760493,-1.260173,111.462770,5735832.208868,620072.159313,-111.462770,30U,8.700818,-0.521427,-0.049741,0.011397,-0.005753,6.240138
1403713563513619,INS_SOLUTION_GOOD,51.760495,-1.260173,111.463745,5735832.382547,620072.144743,-111.463745,30U,8.697330,-0.519689,-0.048246,0.011404,-0.005901,6.240279
1403713563533762,INS_SOLUTION_GOOD,51.760497,-1.260173,111.464745,5735832.556004,620072.130247,-111.464745,30U,8.690906,-0.517134,-0.051104,0.011496,-0.006160,6.240355
1403713563553346,INS_SOLUTION_GOOD,51.760498,-1.260173,111.465789,5735832.729461,620072.115752,-111.465789,30U,8.685080,-0.516861,-0.054036,0.011757,-0.006439,6.240420
1403713563573355,INS_SOLUTION_GOOD,51.760500,-1.260173,111.466986,5735832.902809,620072.101328,-111.466986,30U,8.677472,-0.513354,-0.065364,0.012020,-0.006824,6.240491
1403713563593394,INS_SOLUTION_GOOD,51.760501,-1.260173,111.468364,5735833.075936,620072.086978,-111.468364,30U,8.673654,-0.510208,-0.072385,0.012205,-0.007300,6.240533
1403713563613654,INS_SOLUTION_GOOD,51.760503,-1.260174,111.469879,5735833.249065,620072.072698,-111.469879,30U,8.666870,-0.507437,-0.075839,0.012329,-0.007886,6.240573
1403713563634526,INS_SOLUTION_GOOD,51.760504,-1.260174,111.471408,5735833.421971,620072.058423,-111.471408,30U,8.659585,-0.506148,-0.078256,0.012360,-0.008337,6.240616
1403713563654370,INS_SOLUTION_GOOD,51.760506,-1.260174,111.473025,5735833.594766,620072.044150,-111.473025,30U,8.655192,-0.504959,-0.082380,0.012376,-0.008825,6.240673
1403713563673412,INS_SOLUTION_GOOD,51.760507,-1.260174,111.474709,5735833.767452,620072.029949,-111.474709,30U,8.649941,-0.503910,-0.084471,0.012350,-0.009297,6.240721
1403713563693281,INS_SOLUTION_GOOD,51.760509,-1.260174,111.476264,5735833.940137,620072.015748,-111.476264,30U,8.646412,-0.505017,-0.070277,0.012157,-0.009629,6.240769
1403713563713387,INS_SOLUTION_GOOD,51.760511,-1.260174,111.477581,5735834.112600,620072.001553,-111.477581,30U,8.637566,-0.502901,-0.062785,0.011941,-0.009852,6.240817
1403713563733400,INS_SOLUTION_GOOD,51.760512,-1.260174,111.478781,5735834.284952,620071.987360,-111.478781,30U,8.633167,-0.504674,-0.058803,0.011574,-0.009967,6.240847
1403713563753284,INS_SOLUTION_GOOD,51.760514,-1.260175,111.479967,5735834.457304,620071.973167,-111.479967,30U,8.626227,-0.507306,-0.058775,0.011296,-0.010090,6.240871
1403713563773291,INS_SOLUTION_GOOD,51.760515,-1.260175,111.481045,5735834.629432,620071.958910,-111.481045,30U,8.622338,-0.508092,-0.048048,0.011165,-0.010091,6.240874
1403713563793283,INS_SOLUTION_GOOD,51.760517,-1.260175,111.481943,5735834.801447,620071.944587,-111.481943,30U,8.617379,-0.510541,-0.041266,0.011151,-0.010073,6.240872
1403713563813524,INS_SOLUTION_GOOD,51.760518,-1.260175,111.482709,5735834.973462,620071.930265,-111.482709,30U,8.612022,-0.510593,-0.036479,0.011281,-0.010053,6.240877
1403713563834074,INS_SOLUTION_GOOD,51.760520,-1.260175,111.483383,5735835.145256,620071.916016,-111.483383,30U,8.606283,-0.509705,-0.030005,0.011498,-0.010112,6.240865
1403713563854045,INS_SOLUTION_GOOD,51.760521,-1.260175,111.483911,5735835.317048,620071.901698,-111.483911,30U,8.601647,-0.508783,-0.023044,0.011703,-0.010104,6.240856
1403713563873380,INS_SOLUTION_GOOD,51.760523,-1.260176,111.484274,5735835.488731,620071.887452,-111.484274,30U,8.596398,-0.506575,-0.014237,0.011807,-0.010065,6.240851
1403713563893177,INS_SOLUTION_GOOD,51.760524,-1.260176,111.484525,5735835.660192,620071.873212,-111.484525,30U,8.589577,-0.504973,-0.011033,0.011876,-0.009934,6.240842
1403713563913541,INS_SOLUTION_GOOD,51.760526,-1.260176,111.478952,5735835.833585,620071.865346,-111.478952,30U,8.586170,-0.501497,-0.007113,0.011960,-0.009746,6.240825
1403713563933543,INS_SOLUTION_GOOD,51.760528,-1.260176,111.479131,5735836.004938,620071.851246,-111.479131,30U,8.579722,-0.501076,-0.011182,0.012085,-0.009629,6.240793
1403713563953323,INS_SOLUTION_GOOD,51.760529,-1.260176,111.479375,5735836.176179,620071.837149,-111.479375,30U,8.574277,-0.500144,-0.013616,0.012316,-0.009611,6.240763
1403713563973418,INS_SOLUTION_GOOD,51.760531,-1.260176,111.479758,5735836.347198,620071.823057,-111.479758,30U,8.567252,-0.498498,-0.024184,0.012533,-0.009683,6.240706
1403713563993412,INS_SOLUTION_GOOD,51.760532,-1.260176,111.480306,5735836.518219,620071.809034,-111.480306,30U,8.565337,-0.497831,-0.030482,0.012810,-0.009878,6.240637
1403713564013418,INS_SOLUTION_GOOD,51.760534,-1.260176,111.480989,5735836.689128,620071.795013,-111.480989,30U,8.558513,-0.498843,-0.038163,0.013002,-0.010264,6.240573
1403713564034022,INS_SOLUTION_GOOD,51.760535,-1.260177,111.481755,5735836.859925,620071.780927,-111.481755,30U,8.553023,-0.499815,-0.039922,0.013237,-0.010751,6.240540
1403713564054805,INS_SOLUTION_GOOD,51.760537,-1.260177,111.482593,5735837.030610,620071.766842,-111.482593,30U,8.547823,-0.499445,-0.043773,0.013462,-0.011339,6.240505
1403713564073468,INS_SOLUTION_GOOD,51.760538,-1.260177,111.483491,5735837.201185,620071.752761,-111.483491,30U,8.542752,-0.503107,-0.045032,0.013755,-0.012011,6.240491
1403713564093299,INS_SOLUTION_GOOD,51.760540,-1.260177,111.484375,5735837.371646,620071.738613,-111.484375,30U,8.538513,-0.503728,-0.040167,0.013981,-0.012668,6.240513
1403713564113660,INS_SOLUTION_GOOD,51.760541,-1.260177,111.485065,5735837.541996,620071.724468,-111.485065,30U,8.533328,-0.503306,-0.028155,0.014161,-0.013138,6.240523
1403713564133463,INS_SOLUTION_GOOD,51.760543,-1.260177,111.485509,5735837.712348,620071.710392,-111.485509,30U,8.527504,-0.503051,-0.015766,0.014397,-0.013444,6.240506
1403713564153189,INS_SOLUTION_GOOD,51.760544,-1.260177,111.485772,5735837.882476,620071.696252,-111.485772,30U,8.524967,-0.502564,-0.010303,0.014527,-0.013606,6.240484
1403713564173305,INS_SOLUTION_GOOD,51.760546,-1.260178,111.485987,5735838.052605,620071.682181,-111.485987,30U,8.516015,-0.499705,-0.012451,0.014648,-0.013792,6.240440
1403713564193302,INS_SOLUTION_GOOD,51.760548,-1.260178,111.486287,5735838.222512,620071.668116,-111.486287,30U,8.510375,-0.499352,-0.018995,0.014651,-0.013912,6.240368
1403713564213154,INS_SOLUTION_GOOD,51.760549,-1.260178,111.486728,5735838.392308,620071.654053,-111.486728,30U,8.506189,-0.499233,-0.025234,0.014775,-0.014059,6.240283
1403713564234177,INS_SOLUTION_GOOD,51.760551,-1.260178,111.487181,5735838.562105,620071.640059,-111.487181,30U,8.501931,-0.500112,-0.018501,0.014963,-0.014053,6.240166
1403713564254914,INS_SOLUTION_GOOD,51.760552,-1.260178,111.487453,5735838.731790,620071.625999,-111.487453,30U,8.495109,-0.503484,-0.010337,0.015243,-0.013855,6.240078
1403713564273291,INS_SOLUTION_GOOD,51.760554,-1.260178,111.487568,5735838.901250,620071.611875,-111.487568,30U,8.490520,-0.502670,-0.002832,0.015532,-0.013453,6.239997
1403713564293302,INS_SOLUTION_GOOD,51.760555,-1.260178,111.487600,5735839.070711,620071.597751,-111.487600,30U,8.486455,-0.505542,-0.000363,0.015937,-0.013036,6.239920
1403713564313663,INS_SOLUTION_GOOD,51.760557,-1.260179,111.487482,5735839.240058,620071.583561,-111.487482,30U,8.482598,-0.506541,0.013172,0.016463,-0.012493,6.239876
1403713564333665,INS_SOLUTION_GOOD,51.760558,-1.260179,111.487081,5735839.409408,620071.569439,-111.487081,30U,8.475945,-0.502431,0.025036,0.017009,-0.011797,6.239830
1403713564353399,INS_SOLUTION_GOOD,51.760560,-1.260179,111.486501,5735839.578535,620071.555323,-111.486501,30U,8.473203,-0.501808,0.032243,0.017466,-0.010990,6.239776
1403713564373319,INS_SOLUTION_GOOD,51.760561,-1.260179,111.485833,5735839.747554,620071.541348,-111.485833,30U,8.467870,-0.498615,0.034412,0.017857,-0.010207,6.239706
1403713564393550,INS_SOLUTION_GOOD,51.760563,-1.260179,111.485141,5735839.916573,620071.527373,-111.485141,30U,8.461532,-0.497483,0.035025,0.017961,-0.009399,6.239633
1403713564413431,INS_SOLUTION_GOOD,51.760564,-1.260179,111.484538,5735840.085367,620071.513334,-111.484538,30U,8.455962,-0.500120,0.022893,0.017981,-0.008743,6.239590
1403713564434139,INS_SOLUTION_GOOD,51.760566,-1.260179,111.484229,5735840.254162,620071.499295,-111.484229,30U,8.448408,-0.500851,0.007521,0.017839,-0.008300,6.239543
1403713564455278,INS_SOLUTION_GOOD,51.760567,-1.260180,111.484206,5735840.422733,620071.485192,-111.484206,30U,8.445932,-0.506720,-0.001662,0.017760,-0.008089,6.239510
1403713564473439,INS_SOLUTION_GOOD,51.760569,-1.260180,111.484219,5735840.591302,620071.471021,-111.484219,30U,8.441810,-0.511461,0.001131,0.017902,-0.007873,6.239494
1403713564493545,INS_SOLUTION_GOOD,51.760570,-1.260180,111.484171,5735840.759757,620071.456714,-111.484171,30U,8.433319,-0.513484,0.001609,0.018199,-0.007698,6.239476
1403713564513386,INS_SOLUTION_GOOD,51.760572,-1.260180,111.484173,5735840.927989,620071.442412,-111.484173,30U,8.427067,-0.514095,-0.005649,0.018660,-0.007520,6.239433
1403713564533391,INS_SOLUTION_GOOD,51.760573,-1.260180,111.484446,5735841.096111,620071.428113,-111.484446,30U,8.419747,-0.514731,-0.022792,0.019144,-0.007421,6.239368
1403713564553436,INS_SOLUTION_GOOD,51.760575,-1.260180,111.485065,5735841.264120,620071.413816,-111.485065,30U,8.415674,-0.514545,-0.039303,0.019699,-0.007442,6.239298
1403713564573518,INS_SOLUTION_GOOD,51.760576,-1.260181,111.485982,5735841.432021,620071.399591,-111.485982,30U,8.408775,-0.511340,-0.051752,0.020022,-0.007621,6.239242
1403713564593569,INS_SOLUTION_GOOD,51.760578,-1.260181,111.487120,5735841.599810,620071.385369,-111.487120,30U,8.404352,-0.507149,-0.060711,0.020265,-0.007820,6.239147
1403713564613315,INS_SOLUTION_GOOD,51.760579,-1.260181,111.488338,5735841.767601,620071.371216,-111.488338,30U,8.401210,-0.507197,-0.061018,0.020426,-0.008080,6.239036
1403713564634538,INS_SOLUTION_GOOD,51.760581,-1.260181,111.489592,5735841.935171,620071.357137,-111.489592,30U,8.391150,-0.505439,-0.064783,0.020555,-0.008352,6.238931
1403713564655282,INS_SOLUTION_GOOD,51.760582,-1.260181,111.490930,5735842.102628,620071.342992,-111.490930,30U,8.387443,-0.506667,-0.071382,0.020771,-0.008654,6.238809
1403713564673444,INS_SOLUTION_GOOD,51.760584,-1.260181,111.492420,5735842.269974,620071.328850,-111.492420,30U,8.379630,-0.506762,-0.077746,0.020827,-0.009005,6.238706
1403713564693285,INS_SOLUTION_GOOD,51.760585,-1.260181,111.493964,5735842.437209,620071.314710,-111.493964,30U,8.377725,-0.507891,-0.075065,0.020628,-0.009350,6.238605
1403713564713544,INS_SOLUTION_GOOD,51.760587,-1.260182,111.495410,5735842.604332,620071.300573,-111.495410,30U,8.372758,-0.507649,-0.065886,0.020385,-0.009698,6.238486
1403713564733195,INS_SOLUTION_GOOD,51.760588,-1.260182,111.496618,5735842.771456,620071.286435,-111.496618,30U,8.366141,-0.511866,-0.054139,0.020260,-0.009885,6.238370
1403713564753325,INS_SOLUTION_GOOD,51.760590,-1.260182,111.497619,5735842.938353,620071.272166,-111.497619,30U,8.360082,-0.515380,-0.046208,0.020325,-0.010056,6.238292
1403713564773435,INS_SOLUTION_GOOD,51.760592,-1.260182,111.498510,5735843.105138,620071.257829,-111.498510,30U,8.353990,-0.518534,-0.042743,0.020397,-0.010118,6.238216
1403713564793433,INS_SOLUTION_GOOD,51.760593,-1.260182,111.499316,5735843.271923,620071.243493,-111.499316,30U,8.349840,-0.521176,-0.037421,0.020378,-0.010097,6.238153
1403713564813064,INS_SOLUTION_GOOD,51.760595,-1.260182,111.500019,5735843.438483,620071.229024,-111.500019,30U,8.344091,-0.523906,-0.034994,0.020336,-0.010044,6.238100
1403713564834331,INS_SOLUTION_GOOD,51.760596,-1.260182,111.500732,5735843.604931,620071.214558,-111.500732,30U,8.338517,-0.527261,-0.038173,0.020340,-0.010057,6.238043
1403713564854093,INS_SOLUTION_GOOD,51.760598,-1.260183,111.501506,5735843.771266,620071.200025,-111.501506,30U,8.331804,-0.527600,-0.040536,0.020520,-0.010195,6.238002
1403713564873697,INS_SOLUTION_GOOD,51.760599,-1.260183,111.502278,5735843.937601,620071.185492,-111.502278,30U,8.327545,-0.526087,-0.037526,0.020540,-0.010353,6.237956
1403713564893420,INS_SOLUTION_GOOD,51.760600,-1.260183,111.502986,5735844.103716,620071.171034,-111.502986,30U,8.322089,-0.521963,-0.035693,0.020529,-0.010574,6.237887
1403713564913324,INS_SOLUTION_GOOD,51.760602,-1.260182,111.507700,5735844.234071,620071.201481,-111.507700,30U,8.312364,-0.515881,-0.034576,0.020318,-0.010796,6.237769
1403713564933322,INS_SOLUTION_GOOD,51.760603,-1.260183,111.508351,5735844.399968,620071.187235,-111.508351,30U,8.310572,-0.515917,-0.029398,0.019987,-0.011005,6.237670
1403713564953306,INS_SOLUTION_GOOD,51.760605,-1.260183,111.508947,5735844.565863,620071.172920,-111.508947,30U,8.303925,-0.514372,-0.029745,0.020035,-0.011214,6.237524
1403713564973288,INS_SOLUTION_GOOD,51.760606,-1.260183,111.509442,5735844.731538,620071.158680,-111.509442,30U,8.299741,-0.517356,-0.022758,0.020174,-0.011422,6.237391
1403713564993333,INS_SOLUTION_GOOD,51.760608,-1.260183,111.509961,5735844.897100,620071.144373,-111.509961,30U,8.290459,-0.518581,-0.028861,0.020480,-0.011696,6.237296
1403713565013952,INS_SOLUTION_GOOD,51.760609,-1.260183,111.510515,5735845.062550,620071.130068,-111.510515,30U,8.289111,-0.516414,-0.028026,0.020883,-0.011931,6.237177
1403713565034330,INS_SOLUTION_GOOD,51.760611,-1.260183,111.511099,5735845.228001,620071.115764,-111.511099,30U,8.283048,-0.519229,-0.026179,0.021445,-0.012267,6.237079
1403713565053990,INS_SOLUTION_GOOD,51.760612,-1.260183,111.511564,5735845.393229,620071.101465,-111.511564,30U,8.279753,-0.516822,-0.020601,0.021913,-0.012483,6.236988
1403713565073438,INS_SOLUTION_GOOD,51.760614,-1.260184,111.511980,5735845.558458,620071.087235,-111.511980,30U,8.271150,-0.514861,-0.020403,0.022080,-0.012698,6.236883
1403713565093217,INS_SOLUTION_GOOD,51.760615,-1.260184,111.512474,5735845.723466,620071.073010,-111.512474,30U,8.268614,-0.514091,-0.030612,0.021827,-0.012980,6.236792
1403713565113208,INS_SOLUTION_GOOD,51.760617,-1.260184,111.513156,5735845.888473,620071.058785,-111.513156,30U,8.264796,-0.513822,-0.037521,0.020992,-0.013480,6.236704
1403713565133329,INS_SOLUTION_GOOD,51.760618,-1.260184,111.513912,5735846.053368,620071.044494,-111.513912,30U,8.256987,-0.521130,-0.036046,0.020287,-0.014132,6.236599
1403713565153268,INS_SOLUTION_GOOD,51.760620,-1.260184,111.514494,5735846.218148,620071.030067,-111.514494,30U,8.252868,-0.529635,-0.024367,0.019636,-0.014626,6.236522
1403713565173456,INS_SOLUTION_GOOD,51.760621,-1.260184,111.514934,5735846.382813,620071.015505,-111.514934,30U,8.245945,-0.534088,-0.019906,0.019089,-0.015034,6.236464
1403713565193308,INS_SOLUTION_GOOD,51.760622,-1.260185,111.515143,5735846.547254,620071.000880,-111.515143,30U,8.239128,-0.537122,-0.004089,0.019093,-0.015236,6.236386
1403713565213832,INS_SOLUTION_GOOD,51.760624,-1.260185,111.515169,5735846.711693,620070.986116,-111.515169,30U,8.232583,-0.544965,0.005435,0.019228,-0.015177,6.236363
1403713565234084,INS_SOLUTION_GOOD,51.760625,-1.260185,111.515045,5735846.875907,620070.971289,-111.515045,30U,8.227884,-0.543163,0.003909,0.019140,-0.014873,6.236381
1403713565254517,INS_SOLUTION_GOOD,51.760627,-1.260185,111.515009,5735847.040122,620070.956531,-111.515009,30U,8.225965,-0.539572,0.006057,0.019066,-0.014674,6.236377
1403713565273320,INS_SOLUTION_GOOD,51.760628,-1.260185,111.514791,5735847.204228,620070.941844,-111.514791,30U,8.216842,-0.541817,0.013421,0.019173,-0.014229,6.236350
1403713565293312,INS_SOLUTION_GOOD,51.760630,-1.260185,111.514398,5735847.368111,620070.927094,-111.514398,30U,8.214690,-0.538445,0.026987,0.019505,-0.013537,6.236330
1403713565313325,INS_SOLUTION_GOOD,51.760631,-1.260185,111.513819,5735847.532107,620070.912479,-111.513819,30U,8.209289,-0.530358,0.025417,0.020044,-0.012776,6.236260
1403713565333706,INS_SOLUTION_GOOD,51.760633,-1.260186,111.513319,5735847.695885,620070.898007,-111.513319,30U,8.202348,-0.527801,0.025323,0.020579,-0.011988,6.236146
1403713565353471,INS_SOLUTION_GOOD,51.760634,-1.260186,111.512915,5735847.859552,620070.883607,-111.512915,30U,8.202230,-0.522377,0.017365,0.021019,-0.011284,6.236047
1403713565373459,INS_SOLUTION_GOOD,51.760636,-1.260186,111.512660,5735848.023224,620070.869345,-111.512660,30U,8.194850,-0.514771,0.011213,0.021131,-0.010678,6.235903
1403713565393467,INS_SOLUTION_GOOD,51.760637,-1.260186,111.512512,5735848.186674,620070.855158,-111.512512,30U,8.193168,-0.514800,0.004982,0.021018,-0.010237,6.235754
1403713565414091,INS_SOLUTION_GOOD,51.760639,-1.260186,111.512324,5735848.350234,620070.840898,-111.512324,30U,8.187313,-0.517899,0.012616,0.020550,-0.009731,6.235653
1403713565434352,INS_SOLUTION_GOOD,51.760640,-1.260186,111.511948,5735848.513572,620070.826644,-111.511948,30U,8.183691,-0.520173,0.025771,0.020308,-0.009215,6.235575
1403713565456166,INS_SOLUTION_GOOD,51.760642,-1.260187,111.511244,5735848.676908,620070.812321,-111.511244,30U,8.176294,-0.527800,0.037496,0.020036,-0.008583,6.235496
1403713565473580,INS_SOLUTION_GOOD,51.760643,-1.260187,111.510624,5735848.839902,620070.797661,-111.510624,30U,8.168707,-0.543605,0.028472,0.019561,-0.008126,6.235566
1403713565493603,INS_SOLUTION_GOOD,51.760645,-1.260187,111.510233,5735849.002894,620070.782932,-111.510233,30U,8.162591,-0.541873,0.010046,0.019423,-0.007753,6.235644
1403713565513449,INS_SOLUTION_GOOD,51.760646,-1.260187,111.510312,5735849.165775,620070.768206,-111.510312,30U,8.153756,-0.548501,-0.015338,0.019437,-0.007717,6.235653
1403713565533678,INS_SOLUTION_GOOD,51.760648,-1.260187,111.510841,5735849.328429,620070.753277,-111.510841,30U,8.151324,-0.553291,-0.037162,0.019515,-0.007861,6.235779
1403713565553587,INS_SOLUTION_GOOD,51.760649,-1.260187,111.511744,5735849.491085,620070.738418,-111.511744,30U,8.143251,-0.542591,-0.050813,0.019565,-0.008189,6.235829
1403713565573443,INS_SOLUTION_GOOD,51.760650,-1.260187,111.512783,5735849.653521,620070.723702,-111.512783,30U,8.142826,-0.543051,-0.054419,0.019533,-0.008550,6.235808
1403713565593466,INS_SOLUTION_GOOD,51.760652,-1.260188,111.513952,5735849.815958,620070.708987,-111.513952,30U,8.132268,-0.539427,-0.066563,0.019390,-0.008999,6.235815
1403713565613725,INS_SOLUTION_GOOD,51.760653,-1.260188,111.515418,5735849.978173,620070.694345,-111.515418,30U,8.129439,-0.536186,-0.079216,0.019151,-0.009574,6.235753
1403713565634483,INS_SOLUTION_GOOD,51.760655,-1.260188,111.517108,5735850.140389,620070.679704,-111.517108,30U,8.123228,-0.538242,-0.089360,0.018929,-0.010207,6.235698
1403713565655927,INS_SOLUTION_GOOD,51.760656,-1.260188,111.518896,5735850.302495,620070.665134,-111.518896,30U,8.119909,-0.535332,-0.088786,0.018797,-0.010841,6.235640
1403713565673710,INS_SOLUTION_GOOD,51.760658,-1.260188,111.520569,5735850.464490,620070.650567,-111.520569,30U,8.117606,-0.534676,-0.077885,0.018641,-0.011421,6.235571
1403713565693477,INS_SOLUTION_GOOD,51.760659,-1.260188,111.522014,5735850.626485,620070.635999,-111.522014,30U,8.109155,-0.536050,-0.067805,0.018365,-0.011813,6.235542
1403713565713454,INS_SOLUTION_GOOD,51.760661,-1.260189,111.523278,5735850.788257,620070.621437,-111.523278,30U,8.106455,-0.535310,-0.060622,0.017961,-0.012072,6.235499
1403713565733482,INS_SOLUTION_GOOD,51.760662,-1.260189,111.524450,5735850.950028,620070.606807,-111.524450,30U,8.099915,-0.538076,-0.058350,0.017590,-0.012304,6.235451
1403713565753481,INS_SOLUTION_GOOD,51.760664,-1.260189,111.525580,5735851.111576,620070.592181,-111.525580,30U,8.094851,-0.539828,-0.053214,0.017347,-0.012514,6.235419
1403713565773483,INS_SOLUTION_GOOD,51.760665,-1.260189,111.526591,5735851.273123,620070.577486,-111.526591,30U,8.092010,-0.540230,-0.045979,0.017297,-0.012690,6.235373
1403713565793463,INS_SOLUTION_GOOD,51.760667,-1.260189,111.527386,5735851.434559,620070.562794,-111.527386,30U,8.087756,-0.542666,-0.031763,0.017470,-0.012822,6.235371
1403713565813991,INS_SOLUTION_GOOD,51.760668,-1.260189,111.527940,5735851.595885,620070.548174,-111.527940,30U,8.081077,-0.534901,-0.024444,0.017163,-0.012890,6.235344
1403713565837365,INS_SOLUTION_GOOD,51.760669,-1.260189,111.528365,5735851.757214,620070.533692,-111.528365,30U,8.077723,-0.533515,-0.017377,0.016758,-0.012985,6.235272
1403713565853870,INS_SOLUTION_GOOD,51.760671,-1.260190,111.528687,5735851.918319,620070.519146,-111.528687,30U,8.070660,-0.535994,-0.016410,0.016248,-0.013002,6.235216
1403713565874093,INS_SOLUTION_GOOD,51.760672,-1.260190,111.529016,5735852.079312,620070.504534,-111.529016,30U,8.067833,-0.537864,-0.015831,0.015744,-0.013079,6.235189
1403713565893362,INS_SOLUTION_GOOD,51.760674,-1.260190,111.529322,5735852.240304,620070.489921,-111.529322,30U,8.063958,-0.540300,-0.012432,0.015158,-0.013280,6.235185
1403713565913497,INS_SOLUTION_GOOD,51.760675,-1.260190,111.529457,5735852.401183,620070.475243,-111.529457,30U,8.054508,-0.542278,-0.002585,0.014633,-0.013262,6.235185
1403713565933451,INS_SOLUTION_GOOD,51.760677,-1.260190,111.529389,5735852.561841,620070.460569,-111.529389,30U,8.049833,-0.544235,0.008489,0.014459,-0.013191,6.235146
1403713565953994,INS_SOLUTION_GOOD,51.760678,-1.260190,111.529150,5735852.722496,620070.445827,-111.529150,30U,8.044020,-0.548822,0.012958,0.014672,-0.012872,6.235111
1403713565973202,INS_SOLUTION_GOOD,51.760680,-1.260191,111.528907,5735852.882927,620070.431021,-111.528907,30U,8.039907,-0.545252,0.011304,0.015057,-0.012530,6.235062
1403713565993368,INS_SOLUTION_GOOD,51.760681,-1.260191,111.528718,5735853.043362,620070.416353,-111.528718,30U,8.034333,-0.541915,0.008192,0.015386,-0.012219,6.234969
1403713566013979,INS_SOLUTION_GOOD,51.760682,-1.260191,111.528580,5735853.203574,620070.401690,-111.528580,30U,8.028753,-0.538926,0.005490,0.015623,-0.011877,6.234864
1403713566034372,INS_SOLUTION_GOOD,51.760684,-1.260191,111.528508,5735853.363790,620070.387165,-111.528508,30U,8.024181,-0.535014,0.001030,0.015662,-0.011615,6.234730
1403713566054846,INS_SOLUTION_GOOD,51.760685,-1.260191,111.528483,5735853.523894,620070.372643,-111.528483,30U,8.017617,-0.534958,0.001121,0.015659,-0.011339,6.234575
1403713566073741,INS_SOLUTION_GOOD,51.760687,-1.260191,111.528496,5735853.683887,620070.358124,-111.528496,30U,8.012509,-0.536161,-0.001530,0.015860,-0.011051,6.234416
1403713566093362,INS_SOLUTION_GOOD,51.760688,-1.260192,111.528565,5735853.843657,620070.343541,-111.528565,30U,8.008106,-0.535179,-0.001889,0.016337,-0.010756,6.234247
1403713566113373,INS_SOLUTION_GOOD,51.760690,-1.260192,111.528651,5735854.003427,620070.329026,-111.528651,30U,8.002109,-0.538711,-0.008327,0.016869,-0.010423,6.234069
1403713566133369,INS_SOLUTION_GOOD,51.760691,-1.260192,111.528758,5735854.163196,620070.314443,-111.528758,30U,8.000310,-0.534727,-0.002200,0.017221,-0.010119,6.233927
1403713566153371,INS_SOLUTION_GOOD,51.760693,-1.260192,111.528815,5735854.322746,620070.300004,-111.528815,30U,7.991395,-0.531969,-0.004667,0.017228,-0.009825,6.233747
1403713566173362,INS_SOLUTION_GOOD,51.760694,-1.260192,111.528862,5735854.482183,620070.285497,-111.528862,30U,7.988386,-0.535037,-0.002696,0.017093,-0.009522,6.233554
1403713566193376,INS_SOLUTION_GOOD,51.760695,-1.260192,111.528979,5735854.641509,620070.270994,-111.528979,30U,7.980067,-0.538835,-0.008533,0.016897,-0.009264,6.233387
1403713566213984,INS_SOLUTION_GOOD,51.760697,-1.260192,111.529078,5735854.800721,620070.256355,-111.529078,30U,7.978450,-0.543214,-0.000203,0.016798,-0.008959,6.233225
1403713566234246,INS_SOLUTION_GOOD,51.760698,-1.260193,111.529100,5735854.959931,620070.241647,-111.529100,30U,7.969043,-0.545035,-0.001424,0.016835,-0.008612,6.233072
1403713566254910,INS_SOLUTION_GOOD,51.760700,-1.260193,111.529299,5735855.118918,620070.226945,-111.529299,30U,7.961911,-0.549835,-0.017295,0.017124,-0.008320,6.232900
1403713566273828,INS_SOLUTION_GOOD,51.760701,-1.260193,111.529858,5735855.277680,620070.212109,-111.529858,30U,7.956942,-0.558335,-0.037520,0.017571,-0.008199,6.232755
1403713566293320,INS_SOLUTION_GOOD,51.760703,-1.260193,111.530768,5735855.436436,620070.197067,-111.530768,30U,7.950058,-0.562153,-0.051965,0.018228,-0.008204,6.232666
1403713566313455,INS_SOLUTION_GOOD,51.760704,-1.260193,111.531809,5735855.595084,620070.182096,-111.531809,30U,7.949606,-0.557203,-0.053372,0.018811,-0.008291,6.232546
1403713566333700,INS_SOLUTION_GOOD,51.760705,-1.260193,111.532848,5735855.753621,620070.167197,-111.532848,30U,7.941352,-0.556737,-0.052574,0.019294,-0.008366,6.232429
1403713566353493,INS_SOLUTION_GOOD,51.760707,-1.260194,111.533901,5735855.912157,620070.152229,-111.533901,30U,7.938656,-0.556317,-0.052901,0.019568,-0.008484,6.232343
1403713566373614,INS_SOLUTION_GOOD,51.760708,-1.260194,111.535031,5735856.070474,620070.137405,-111.535031,30U,7.931644,-0.553509,-0.059591,0.019555,-0.008693,6.232233
1403713566393361,INS_SOLUTION_GOOD,51.760710,-1.260194,111.536206,5735856.228678,620070.122514,-111.536206,30U,7.928584,-0.555392,-0.058801,0.019441,-0.008986,6.232111
1403713566413753,INS_SOLUTION_GOOD,51.760711,-1.260194,111.537433,5735856.386882,620070.107623,-111.537433,30U,7.917775,-0.555831,-0.064785,0.019318,-0.009311,6.232004
1403713566434251,INS_SOLUTION_GOOD,51.760713,-1.260194,111.538749,5735856.544863,620070.092737,-111.538749,30U,7.916998,-0.558617,-0.065527,0.019256,-0.009628,6.231891
1403713566454695,INS_SOLUTION_GOOD,51.760714,-1.260194,111.540016,5735856.702842,620070.077713,-111.540016,30U,7.911895,-0.561967,-0.059473,0.019267,-0.009904,6.231797
1403713566473385,INS_SOLUTION_GOOD,51.760715,-1.260195,111.541154,5735856.860599,620070.062764,-111.541154,30U,7.906134,-0.563614,-0.053372,0.019073,-0.010071,6.231705
1403713566493384,INS_SOLUTION_GOOD,51.760717,-1.260195,111.542115,5735857.018353,620070.047676,-111.542115,30U,7.902769,-0.565000,-0.043679,0.018710,-0.010191,6.231621
1403713566513498,INS_SOLUTION_GOOD,51.760718,-1.260195,111.542982,5735857.175996,620070.032592,-111.542982,30U,7.892658,-0.567355,-0.043640,0.018394,-0.010264,6.231505
1403713566533377,INS_SOLUTION_GOOD,51.760720,-1.260195,111.543856,5735857.333415,620070.017443,-111.543856,30U,7.889387,-0.573014,-0.040727,0.018344,-0.010386,6.231382
1403713566553639,INS_SOLUTION_GOOD,51.760721,-1.260195,111.544743,5735857.490833,620070.002226,-111.544743,30U,7.880973,-0.574127,-0.046780,0.018516,-0.010392,6.231277
1403713566573587,INS_SOLUTION_GOOD,51.760722,-1.260195,111.545642,5735857.648028,620069.987013,-111.545642,30U,7.878087,-0.572733,-0.044593,0.018820,-0.010357,6.231146
1403713566593503,INS_SOLUTION_GOOD,51.760724,-1.260196,111.546526,5735857.805222,620069.971801,-111.546526,30U,7.872684,-0.571303,-0.044479,0.019272,-0.010317,6.231019
1403713566614135,INS_SOLUTION_GOOD,51.760725,-1.260196,111.547370,5735857.962197,620069.956663,-111.547370,30U,7.867528,-0.567892,-0.039579,0.019677,-0.010248,6.230884
1403713566634489,INS_SOLUTION_GOOD,51.760727,-1.260196,111.548204,5735858.119172,620069.941595,-111.548204,30U,7.861587,-0.563986,-0.043891,0.020086,-0.010214,6.230739
1403713566655084,INS_SOLUTION_GOOD,51.760728,-1.260196,111.549003,5735858.275927,620069.926600,-111.549003,30U,7.856621,-0.560404,-0.039544,0.020512,-0.010185,6.230590
1403713566673394,INS_SOLUTION_GOOD,51.760730,-1.260196,111.549787,5735858.432684,620069.911674,-111.549787,30U,7.850733,-0.555448,-0.038400,0.020624,-0.010165,6.230437
1403713566693383,INS_SOLUTION_GOOD,51.760731,-1.260196,111.550459,5735858.589333,620069.896890,-111.550459,30U,7.849033,-0.556612,-0.028767,0.020475,-0.010066,6.230263
1403713566713227,INS_SOLUTION_GOOD,51.760732,-1.260197,111.550991,5735858.745867,620069.881969,-111.550991,30U,7.840788,-0.558290,-0.022057,0.020221,-0.009953,6.230108
1403713566733382,INS_SOLUTION_GOOD,51.760734,-1.260197,111.551316,5735858.902290,620069.867052,-111.551316,30U,7.837791,-0.563051,-0.011583,0.019974,-0.009710,6.229960
1403713566753762,INS_SOLUTION_GOOD,51.760735,-1.260197,111.551579,5735859.058599,620069.851999,-111.551579,30U,7.828554,-0.569526,-0.015013,0.019833,-0.009466,6.229834
1403713566773126,INS_SOLUTION_GOOD,51.760737,-1.260197,111.551934,5735859.214793,620069.836811,-111.551934,30U,7.824024,-0.572374,-0.020919,0.019751,-0.009217,6.229716
1403713566793601,INS_SOLUTION_GOOD,51.760738,-1.260197,111.552442,5735859.370874,620069.821556,-111.552442,30U,7.817796,-0.579310,-0.028021,0.019717,-0.009108,6.229609
1403713566814142,INS_SOLUTION_GOOD,51.760739,-1.260197,111.552960,5735859.526842,620069.806235,-111.552960,30U,7.813453,-0.581804,-0.023103,0.019696,-0.008927,6.229513
1403713566838025,INS_SOLUTION_GOOD,51.760741,-1.260198,111.553422,5735859.682698,620069.790848,-111.553422,30U,7.806988,-0.585686,-0.020543,0.019648,-0.008795,6.229439
1403713566853870,INS_SOLUTION_GOOD,51.760742,-1.260198,111.553805,5735859.838329,620069.775397,-111.553805,30U,7.799722,-0.587992,-0.019054,0.019843,-0.008551,6.229360
1403713566873975,INS_SOLUTION_GOOD,51.760744,-1.260198,111.554253,5735859.993960,620069.759945,-111.554253,30U,7.792934,-0.590471,-0.026816,0.020014,-0.008371,6.229305
1403713566893515,INS_SOLUTION_GOOD,51.760745,-1.260198,111.554894,5735860.149368,620069.744431,-111.554894,30U,7.786118,-0.587342,-0.037066,0.020182,-0.008242,6.229253
1403713566913376,INS_SOLUTION_GOOD,51.760746,-1.260198,111.555739,5735860.304666,620069.728988,-111.555739,30U,7.782008,-0.583673,-0.044637,0.020437,-0.008191,6.229158
1403713566933290,INS_SOLUTION_GOOD,51.760748,-1.260195,111.730228,5735860.524658,620069.930054,-111.730228,30U,7.780517,-0.566891,-0.057045,0.020782,-0.008196,6.228884
1403713566953397,INS_SOLUTION_GOOD,51.760750,-1.260195,111.731372,5735860.679743,620069.915030,-111.731372,30U,7.773429,-0.563776,-0.058271,0.020949,-0.008218,6.228799
1403713566973613,INS_SOLUTION_GOOD,51.760751,-1.260196,111.732487,5735860.834832,620069.900144,-111.732487,30U,7.767118,-0.558519,-0.056056,0.021047,-0.008265,6.228675
1403713566993778,INS_SOLUTION_GOOD,51.760753,-1.260196,111.733605,5735860.989809,620069.885261,-111.733605,30U,7.760265,-0.560373,-0.057160,0.020954,-0.008347,6.228553
1403713567013878,INS_SOLUTION_GOOD,51.760754,-1.260196,111.734777,5735861.144564,620069.870384,-111.734777,30U,7.752510,-0.559202,-0.060099,0.020892,-0.008528,6.228469
1403713567034284,INS_SOLUTION_GOOD,51.760755,-1.260196,111.735988,5735861.299206,620069.855440,-111.735988,30U,7.742852,-0.562710,-0.061283,0.020713,-0.008736,6.228370
1403713567054930,INS_SOLUTION_GOOD,51.760757,-1.260196,111.737204,5735861.453626,620069.840501,-111.737204,30U,7.734926,-0.566615,-0.061316,0.020726,-0.008918,6.228305
1403713567073269,INS_SOLUTION_GOOD,51.760758,-1.260196,111.738480,5735861.607820,620069.825429,-111.738480,30U,7.725431,-0.568682,-0.064768,0.020643,-0.009124,6.228250
1403713567093402,INS_SOLUTION_GOOD,51.760759,-1.260197,111.739785,5735861.761903,620069.810360,-111.739785,30U,7.715441,-0.572258,-0.064360,0.020683,-0.009328,6.228202
1403713567113364,INS_SOLUTION_GOOD,51.760761,-1.260197,111.741074,5735861.915763,620069.795297,-111.741074,30U,7.705084,-0.571095,-0.064403,0.020754,-0.009490,6.228143
1403713567133288,INS_SOLUTION_GOOD,51.760762,-1.260197,111.742329,5735862.069399,620069.780169,-111.742329,30U,7.693266,-0.573662,-0.062357,0.020811,-0.009629,6.228091
1403713567153655,INS_SOLUTION_GOOD,51.760764,-1.260197,111.743565,5735862.222702,620069.765050,-111.743565,30U,7.680590,-0.570942,-0.060817,0.021055,-0.009733,6.228020
1403713567173406,INS_SOLUTION_GOOD,51.760765,-1.260197,111.744751,5735862.375893,620069.749933,-111.744751,30U,7.669751,-0.571619,-0.059024,0.021359,-0.009744,6.227934
1403713567193389,INS_SOLUTION_GOOD,51.760766,-1.260197,111.746009,5735862.528753,620069.734894,-111.746009,30U,7.654134,-0.567867,-0.065851,0.021808,-0.009781,6.227834
1403713567214018,INS_SOLUTION_GOOD,51.760768,-1.260198,111.747312,5735862.681392,620069.719928,-111.747312,30U,7.644318,-0.566687,-0.065025,0.022107,-0.009792,6.227716
1403713567237262,INS_SOLUTION_GOOD,51.760769,-1.260198,111.748646,5735862.833810,620069.705037,-111.748646,30U,7.627061,-0.561146,-0.068665,0.022426,-0.009826,6.227583
1403713567255617,INS_SOLUTION_GOOD,51.760771,-1.260198,111.750048,5735862.985896,620069.690223,-111.750048,30U,7.616291,-0.558682,-0.069950,0.022713,-0.009911,6.227408
1403713567273386,INS_SOLUTION_GOOD,51.760772,-1.260198,111.751464,5735863.137759,620069.675414,-111.751464,30U,7.600282,-0.557642,-0.068926,0.022963,-0.010060,6.227226
1403713567293516,INS_SOLUTION_GOOD,51.760773,-1.260198,111.752823,5735863.289291,620069.660683,-111.752823,30U,7.586819,-0.555447,-0.066329,0.023056,-0.010212,6.227025
1403713567313657,INS_SOLUTION_GOOD,51.760775,-1.260198,111.754154,5735863.440489,620069.645959,-111.754154,30U,7.572262,-0.555798,-0.067725,0.023044,-0.010449,6.226811
1403713567334147,INS_SOLUTION_GOOD,51.760776,-1.260198,111.755537,5735863.591464,620069.631240,-111.755537,30U,7.557499,-0.556337,-0.068719,0.023008,-0.010856,6.226607
1403713567353767,INS_SOLUTION_GOOD,51.760777,-1.260199,111.756834,5735863.742105,620069.616461,-111.756834,30U,7.539134,-0.559603,-0.061173,0.023147,-0.011299,6.226408
1403713567374027,INS_SOLUTION_GOOD,51.760779,-1.260199,111.758021,5735863.892300,620069.601692,-111.758021,30U,7.520919,-0.563345,-0.057116,0.023414,-0.011636,6.226217
1403713567393377,INS_SOLUTION_GOOD,51.760780,-1.260199,111.759126,5735864.042270,620069.586790,-111.759126,30U,7.506648,-0.564212,-0.055436,0.023671,-0.011918,6.226039
1403713567413937,INS_SOLUTION_GOOD,51.760781,-1.260199,111.760234,5735864.191796,620069.571968,-111.760234,30U,7.489722,-0.565630,-0.053358,0.023956,-0.012189,6.225845
1403713567437256,INS_SOLUTION_GOOD,51.760783,-1.260199,111.761291,5735864.341097,620069.557013,-111.761291,30U,7.472840,-0.569153,-0.051815,0.024617,-0.012478,6.225660
1403713567456586,INS_SOLUTION_GOOD,51.760784,-1.260199,111.762294,5735864.490065,620069.542066,-111.762294,30U,7.452010,-0.574662,-0.049476,0.025379,-0.012656,6.225535
1403713567473922,INS_SOLUTION_GOOD,51.760785,-1.260200,111.763269,5735864.638584,620069.526992,-111.763269,30U,7.436916,-0.572020,-0.049885,0.025925,-0.012807,6.225452
1403713567493672,INS_SOLUTION_GOOD,51.760787,-1.260200,111.764284,5735864.786773,620069.512064,-111.764284,30U,7.423366,-0.567100,-0.053488,0.026000,-0.012986,6.225315
1403713567513635,INS_SOLUTION_GOOD,51.760788,-1.260200,111.765424,5735864.934741,620069.497210,-111.765424,30U,7.408114,-0.567874,-0.060666,0.025836,-0.013386,6.225163
1403713567533370,INS_SOLUTION_GOOD,51.760789,-1.260200,111.766682,5735865.082373,620069.482295,-111.766682,30U,7.387845,-0.571628,-0.064711,0.025750,-0.013998,6.225022
1403713567553544,INS_SOLUTION_GOOD,51.760791,-1.260200,111.768020,5735865.229671,620069.467319,-111.768020,30U,7.375146,-0.573541,-0.069243,0.025799,-0.014593,6.224916
1403713567574047,INS_SOLUTION_GOOD,51.760792,-1.260200,111.769451,5735865.376635,620069.452351,-111.769451,30U,7.358791,-0.573240,-0.075617,0.025691,-0.015256,6.224809
1403713567593421,INS_SOLUTION_GOOD,51.760793,-1.260201,111.770950,5735865.523376,620069.437388,-111.770950,30U,7.346495,-0.573562,-0.073310,0.025482,-0.015996,6.224699
1403713567613923,INS_SOLUTION_GOOD,51.760795,-1.260201,111.772366,5735865.669783,620069.422364,-111.772366,30U,7.328710,-0.577860,-0.068321,0.024780,-0.016729,6.224613
1403713567634530,INS_SOLUTION_GOOD,51.760796,-1.260201,111.773666,5735865.815855,620069.407348,-111.773666,30U,7.310944,-0.578248,-0.059439,0.023666,-0.017336,6.224539
1403713567655649,INS_SOLUTION_GOOD,51.760797,-1.260201,111.774749,5735865.961593,620069.392271,-111.774749,30U,7.300078,-0.583010,-0.046951,0.022508,-0.017818,6.224435
1403713567673422,INS_SOLUTION_GOOD,51.760799,-1.260201,111.775510,5735866.107104,620069.377062,-111.775510,30U,7.285156,-0.590460,-0.026749,0.021451,-0.018085,6.224377
1403713567693651,INS_SOLUTION_GOOD,51.760800,-1.260201,111.775830,5735866.252169,620069.361794,-111.775830,30U,7.262908,-0.590693,-0.007826,0.020751,-0.018001,6.224314
1403713567713668,INS_SOLUTION_GOOD,51.760801,-1.260202,111.775941,5735866.396899,620069.346465,-111.775941,30U,7.246200,-0.596087,-0.004094,0.020305,-0.017577,6.224227
1403713567733271,INS_SOLUTION_GOOD,51.760803,-1.260202,111.776063,5735866.541403,620069.331003,-111.776063,30U,7.231006,-0.601088,-0.009084,0.020279,-0.017006,6.224179
1403713567753292,INS_SOLUTION_GOOD,51.760804,-1.260202,111.776321,5735866.685464,620069.315621,-111.776321,30U,7.216075,-0.595455,-0.013027,0.020103,-0.016318,6.224119
1403713567773526,INS_SOLUTION_GOOD,51.760805,-1.260202,111.776426,5735866.829306,620069.300382,-111.776426,30U,7.200298,-0.586449,0.001527,0.020352,-0.015386,6.223968
1403713567793426,INS_SOLUTION_GOOD,51.760806,-1.260202,111.776380,5735866.972818,620069.285289,-111.776380,30U,7.184386,-0.582167,0.005216,0.021307,-0.014196,6.223698
1403713567814049,INS_SOLUTION_GOOD,51.760808,-1.260202,111.776426,5735867.115996,620069.270204,-111.776426,30U,7.169284,-0.579758,-0.011694,0.022120,-0.013040,6.223509
1403713567837652,INS_SOLUTION_GOOD,51.760809,-1.260203,111.776831,5735867.258847,620069.255403,-111.776831,30U,7.157537,-0.561718,-0.027824,0.022311,-0.012007,6.223343
1403713567853952,INS_SOLUTION_GOOD,51.760810,-1.260203,111.777388,5735867.401593,620069.240881,-111.777388,30U,7.145488,-0.551730,-0.026886,0.021471,-0.011138,6.223078
1403713567873810,INS_SOLUTION_GOOD,51.760812,-1.260203,111.777682,5735867.544006,620069.226367,-111.777682,30U,7.132937,-0.561315,-0.003248,0.020789,-0.010145,6.222896
1403713567893693,INS_SOLUTION_GOOD,51.760813,-1.260203,111.777601,5735867.686080,620069.211654,-111.777601,30U,7.112608,-0.563873,0.007537,0.020199,-0.009005,6.222817
1403713567913431,INS_SOLUTION_GOOD,51.760814,-1.260203,111.777482,5735867.827820,620069.196948,-111.777482,30U,7.096903,-0.569644,0.001736,0.019904,-0.007832,6.222758
1403713567933389,INS_SOLUTION_GOOD,51.760815,-1.260201,111.849871,5735867.930862,620069.341769,-111.849871,30U,7.081070,-0.561970,-0.011392,0.020247,-0.006760,6.222595
1403713567953811,INS_SOLUTION_GOOD,51.760816,-1.260201,111.850034,5735868.072157,620069.327074,-111.850034,30U,7.074912,-0.568745,-0.004090,0.020463,-0.005868,6.222597
1403713567973307,INS_SOLUTION_GOOD,51.760818,-1.260201,111.849994,5735868.213118,620069.312318,-111.849994,30U,7.053529,-0.572960,0.006918,0.020287,-0.005078,6.222686
1403713567993435,INS_SOLUTION_GOOD,51.760819,-1.260202,111.849907,5735868.353632,620069.297504,-111.849907,30U,7.035555,-0.569613,0.000045,0.020071,-0.004237,6.222725
1403713568014053,INS_SOLUTION_GOOD,51.760820,-1.260202,111.850108,5735868.493923,620069.282695,-111.850108,30U,7.029007,-0.580315,-0.017727,0.019799,-0.003815,6.222766
1403713568034049,INS_SOLUTION_GOOD,51.760821,-1.260202,111.850570,5735868.633988,620069.267685,-111.850570,30U,7.010890,-0.583512,-0.023065,0.019444,-0.003624,6.222878
1403713568054674,INS_SOLUTION_GOOD,51.760823,-1.260202,111.851190,5735868.773609,620069.252754,-111.851190,30U,6.991656,-0.576212,-0.039347,0.019237,-0.003512,6.222899
1403713568073630,INS_SOLUTION_GOOD,51.760824,-1.260202,111.852217,5735868.913009,620069.237897,-111.852217,30U,6.980339,-0.578089,-0.067666,0.018898,-0.003697,6.222865
1403713568093430,INS_SOLUTION_GOOD,51.760825,-1.260203,111.853907,5735869.052075,620069.223048,-111.853907,30U,6.961880,-0.572818,-0.105421,0.018525,-0.004213,6.222812
1403713568113315,INS_SOLUTION_GOOD,51.760826,-1.260203,111.856175,5735869.190923,620069.208343,-111.856175,30U,6.955949,-0.569409,-0.115282,0.017891,-0.005156,6.222694
1403713568133446,INS_SOLUTION_GOOD,51.760828,-1.260203,111.858626,5735869.329437,620069.193645,-111.858626,30U,6.931723,-0.571695,-0.134479,0.017359,-0.006002,6.222601
1403713568153320,INS_SOLUTION_GOOD,51.760829,-1.260203,111.861482,5735869.467617,620069.178956,-111.861482,30U,6.920761,-0.568149,-0.149724,0.017073,-0.007001,6.222457
1403713568173570,INS_SOLUTION_GOOD,51.760830,-1.260203,111.864510,5735869.605573,620069.164203,-111.864510,30U,6.909387,-0.577714,-0.156557,0.016964,-0.008048,6.222344
1403713568193448,INS_SOLUTION_GOOD,51.760831,-1.260203,111.867580,5735869.743194,620069.149389,-111.867580,30U,6.890863,-0.573362,-0.147412,0.017198,-0.008871,6.222321
1403713568214057,INS_SOLUTION_GOOD,51.760833,-1.260203,111.870301,5735869.880596,620069.134718,-111.870301,30U,6.881640,-0.569628,-0.130192,0.017416,-0.009447,6.222279
1403713568234185,INS_SOLUTION_GOOD,51.760834,-1.260204,111.872885,5735870.017664,620069.120055,-111.872885,30U,6.861088,-0.565540,-0.124886,0.018246,-0.009749,6.222255
1403713568254392,INS_SOLUTION_GOOD,51.760835,-1.260204,111.875456,5735870.154513,620069.105535,-111.875456,30U,6.854854,-0.563585,-0.129921,0.018772,-0.010026,6.222247
1403713568273275,INS_SOLUTION_GOOD,51.760836,-1.260204,111.878177,5735870.291030,620069.091093,-111.878177,30U,6.831971,-0.553667,-0.141068,0.019570,-0.010260,6.222231
1403713568293275,INS_SOLUTION_GOOD,51.760838,-1.260204,111.880910,5735870.427330,620069.076862,-111.880910,30U,6.827976,-0.544192,-0.134305,0.020595,-0.010464,6.222076
1403713568313150,INS_SOLUTION_GOOD,51.760839,-1.260204,111.883586,5735870.563410,620069.062775,-111.883586,30U,6.810530,-0.542748,-0.132164,0.021725,-0.010680,6.221917
1403713568333643,INS_SOLUTION_GOOD,51.760840,-1.260204,111.886097,5735870.699159,620069.048765,-111.886097,30U,6.805508,-0.534991,-0.113619,0.022509,-0.010826,6.221742
1403713568353275,INS_SOLUTION_GOOD,51.760841,-1.260205,111.888221,5735870.834800,620069.034896,-111.888221,30U,6.785832,-0.527315,-0.104259,0.022962,-0.010850,6.221489
1403713568373577,INS_SOLUTION_GOOD,51.760842,-1.260205,111.890206,5735870.970108,620069.021104,-111.890206,30U,6.774927,-0.528706,-0.096021,0.023331,-0.010834,6.221148
1403713568393302,INS_SOLUTION_GOOD,51.760844,-1.260205,111.891978,5735871.105193,620069.007247,-111.891978,30U,6.767109,-0.537898,-0.079122,0.023546,-0.010870,6.220855
1403713568414072,INS_SOLUTION_GOOD,51.760845,-1.260205,111.893554,5735871.239939,620068.993192,-111.893554,30U,6.743765,-0.540043,-0.076409,0.023892,-0.010809,6.220591
1403713568434443,INS_SOLUTION_GOOD,51.760846,-1.260205,111.894849,5735871.374463,620068.979143,-111.894849,30U,6.740935,-0.550549,-0.056773,0.024179,-0.010642,6.220301
1403713568455172,INS_SOLUTION_GOOD,51.760847,-1.260205,111.895817,5735871.508757,620068.964822,-111.895817,30U,6.721613,-0.561554,-0.042041,0.024587,-0.010371,6.220094
1403713568473329,INS_SOLUTION_GOOD,51.760848,-1.260206,111.896490,5735871.642713,620068.950302,-111.896490,30U,6.712579,-0.565247,-0.021143,0.025024,-0.010021,6.219923
1403713568493831,INS_SOLUTION_GOOD,51.760850,-1.260206,111.896807,5735871.776556,620068.935716,-111.896807,30U,6.697120,-0.575159,-0.014376,0.025247,-0.009515,6.219798
1403713568513549,INS_SOLUTION_GOOD,51.760851,-1.260206,111.897092,5735871.909952,620068.921003,-111.897092,30U,6.682448,-0.580685,-0.013755,0.025366,-0.008937,6.219720
1403713568533305,INS_SOLUTION_GOOD,51.760852,-1.260206,111.897410,5735872.043232,620068.906154,-111.897410,30U,6.673319,-0.582255,-0.020872,0.025207,-0.008502,6.219656
1403713568553340,INS_SOLUTION_GOOD,51.760853,-1.260206,111.898023,5735872.176068,620068.891316,-111.898023,30U,6.655246,-0.585383,-0.036697,0.025047,-0.008201,6.219609
1403713568573210,INS_SOLUTION_GOOD,51.760854,-1.260206,111.898789,5735872.308792,620068.876481,-111.898789,30U,6.646756,-0.582509,-0.046484,0.024951,-0.008025,6.219563
1403713568593335,INS_SOLUTION_GOOD,51.760856,-1.260207,111.899968,5735872.441185,620068.861722,-111.899968,30U,6.628854,-0.578085,-0.066529,0.024937,-0.008196,6.219466
1403713568613864,INS_SOLUTION_GOOD,51.760857,-1.260207,111.901458,5735872.573357,620068.847038,-111.901458,30U,6.620390,-0.572699,-0.083711,0.024743,-0.008445,6.219350
1403713568634335,INS_SOLUTION_GOOD,51.760858,-1.260207,111.903266,5735872.705311,620068.832566,-111.903266,30U,6.605685,-0.563809,-0.093497,0.024479,-0.008860,6.219193
1403713568655033,INS_SOLUTION_GOOD,51.760859,-1.260207,111.905076,5735872.837045,620068.818168,-111.905076,30U,6.600759,-0.561751,-0.088191,0.024047,-0.009240,6.219001
1403713568673685,INS_SOLUTION_GOOD,51.760860,-1.260207,111.906867,5735872.968446,620068.803848,-111.906867,30U,6.580269,-0.557563,-0.093126,0.023748,-0.009564,6.218805
1403713568693719,INS_SOLUTION_GOOD,51.760862,-1.260207,111.908704,5735873.099737,620068.789530,-111.908704,30U,6.575133,-0.559002,-0.091424,0.023392,-0.009871,6.218602
1403713568713476,INS_SOLUTION_GOOD,51.760863,-1.260208,111.910573,5735873.230692,620068.775151,-111.910573,30U,6.558744,-0.564564,-0.095654,0.023244,-0.010191,6.218462
1403713568733346,INS_SOLUTION_GOOD,51.760864,-1.260208,111.912401,5735873.361425,620068.760777,-111.912401,30U,6.553251,-0.564850,-0.085097,0.023121,-0.010476,6.218352
1403713568753342,INS_SOLUTION_GOOD,51.760865,-1.260208,111.914018,5735873.492043,620068.746268,-111.914018,30U,6.536507,-0.568073,-0.077477,0.022913,-0.010667,6.218276
1403713568773216,INS_SOLUTION_GOOD,51.760866,-1.260208,111.915557,5735873.622329,620068.731836,-111.915557,30U,6.526583,-0.570659,-0.074343,0.022746,-0.010761,6.218242
1403713568793453,INS_SOLUTION_GOOD,51.760867,-1.260208,111.917000,5735873.752390,620068.717271,-111.917000,30U,6.517193,-0.571579,-0.071118,0.022441,-0.010862,6.218234
1403713568813919,INS_SOLUTION_GOOD,51.760869,-1.260208,111.918445,5735873.882228,620068.702712,-111.918445,30U,6.502274,-0.572303,-0.072900,0.022144,-0.010974,6.218232
1403713568834826,INS_SOLUTION_GOOD,51.760870,-1.260209,111.919922,5735874.011845,620068.688227,-111.919922,30U,6.493087,-0.573125,-0.076780,0.021871,-0.011149,6.218222
1403713568853910,INS_SOLUTION_GOOD,51.760871,-1.260209,111.921519,5735874.141239,620068.673678,-111.921519,30U,6.480569,-0.572543,-0.080371,0.021574,-0.011446,6.218211
1403713568873578,INS_SOLUTION_GOOD,51.760872,-1.260209,111.923147,5735874.270409,620068.659134,-111.923147,30U,6.468480,-0.572021,-0.082340,0.021187,-0.011769,6.218178
1403713568893953,INS_SOLUTION_GOOD,51.760873,-1.260209,111.924785,5735874.399358,620068.644596,-111.924785,30U,6.455069,-0.571536,-0.080913,0.020813,-0.012068,6.218122
1403713568914038,INS_SOLUTION_GOOD,51.760873,-1.260207,111.941256,5735874.374030,620068.814229,-111.941256,30U,6.431597,-0.557543,-0.079750,0.020653,-0.012235,6.217925
1403713568933352,INS_SOLUTION_GOOD,51.760874,-1.260207,111.942817,5735874.502206,620068.799985,-111.942817,30U,6.420650,-0.556398,-0.073621,0.020663,-0.012320,6.217846
1403713568953600,INS_SOLUTION_GOOD,51.760875,-1.260207,111.944177,5735874.630162,620068.785816,-111.944177,30U,6.408864,-0.556243,-0.063240,0.020924,-0.012184,6.217764
1403713568973456,INS_SOLUTION_GOOD,51.760877,-1.260207,111.945302,5735874.757897,620068.771721,-111.945302,30U,6.398650,-0.553142,-0.048569,0.021306,-0.011866,6.217667
1403713568993599,INS_SOLUTION_GOOD,51.760878,-1.260207,111.946174,5735874.885408,620068.757562,-111.946174,30U,6.384426,-0.552697,-0.040938,0.021682,-0.011379,6.217582
1403713569013937,INS_SOLUTION_GOOD,51.760879,-1.260207,111.946968,5735875.012700,620068.743547,-111.946968,30U,6.372433,-0.546865,-0.039382,0.022062,-0.010758,6.217502
1403713569034228,INS_SOLUTION_GOOD,51.760880,-1.260208,111.947787,5735875.139660,620068.729608,-111.947787,30U,6.360795,-0.543670,-0.042974,0.022321,-0.010168,6.217406
1403713569054988,INS_SOLUTION_GOOD,51.760881,-1.260208,111.948688,5735875.266399,620068.715744,-111.948688,30U,6.349295,-0.543004,-0.044311,0.022578,-0.009580,6.217322
1403713569073182,INS_SOLUTION_GOOD,51.760882,-1.260208,111.949609,5735875.392916,620068.701886,-111.949609,30U,6.335899,-0.542209,-0.047670,0.022783,-0.009007,6.217255
1403713569093727,INS_SOLUTION_GOOD,51.760883,-1.260208,111.950585,5735875.519210,620068.688032,-111.950585,30U,6.325043,-0.541520,-0.050342,0.023080,-0.008419,6.217190
1403713569113475,INS_SOLUTION_GOOD,51.760885,-1.260208,111.951628,5735875.645282,620068.674184,-111.951628,30U,6.315217,-0.541145,-0.054819,0.023330,-0.007963,6.217141
1403713569133838,INS_SOLUTION_GOOD,51.760886,-1.260208,111.952765,5735875.771243,620068.660338,-111.952765,30U,6.303413,-0.540045,-0.058474,0.023290,-0.007600,6.217079
1403713569153682,INS_SOLUTION_GOOD,51.760887,-1.260208,111.953958,5735875.896872,620068.646570,-111.953958,30U,6.292213,-0.539278,-0.061383,0.023012,-0.007404,6.216966
1403713569173230,INS_SOLUTION_GOOD,51.760888,-1.260209,111.955204,5735876.022167,620068.632809,-111.955204,30U,6.278982,-0.541025,-0.063243,0.022644,-0.007263,6.216802
1403713569193196,INS_SOLUTION_GOOD,51.760889,-1.260209,111.956454,5735876.147348,620068.618913,-111.956454,30U,6.269294,-0.546244,-0.060071,0.022412,-0.007204,6.216620
1403713569214051,INS_SOLUTION_GOOD,51.760890,-1.260209,111.957592,5735876.272306,620068.605023,-111.957592,30U,6.257165,-0.548498,-0.052238,0.022298,-0.007060,6.216419
1403713569234078,INS_SOLUTION_GOOD,51.760891,-1.260209,111.958563,5735876.397038,620068.590999,-111.958563,30U,6.245668,-0.553011,-0.044507,0.022130,-0.006800,6.216196
1403713569255154,INS_SOLUTION_GOOD,51.760892,-1.260209,111.959367,5735876.521547,620068.576912,-111.959367,30U,6.235954,-0.558767,-0.037051,0.021888,-0.006448,6.215985
1403713569273341,INS_SOLUTION_GOOD,51.760894,-1.260209,111.960073,5735876.645720,620068.562764,-111.960073,30U,6.223467,-0.561846,-0.033551,0.021384,-0.006030,6.215778
1403713569293578,INS_SOLUTION_GOOD,51.760895,-1.260210,111.960742,5735876.769779,620068.548480,-111.960742,30U,6.213106,-0.565421,-0.034601,0.020731,-0.005613,6.215582
1403713569313485,INS_SOLUTION_GOOD,51.760896,-1.260210,111.961565,5735876.893615,620068.534202,-111.961565,30U,6.197979,-0.567491,-0.048318,0.020089,-0.005298,6.215376
1403713569334075,INS_SOLUTION_GOOD,51.760897,-1.260210,111.962693,5735877.017116,620068.519863,-111.962693,30U,6.187610,-0.571078,-0.064720,0.019586,-0.005124,6.215168
1403713569353235,INS_SOLUTION_GOOD,51.760898,-1.260210,111.964174,5735877.140395,620068.505529,-111.964174,30U,6.175222,-0.572510,-0.082635,0.019292,-0.005148,6.214988
1403713569373449,INS_SOLUTION_GOOD,51.760899,-1.260210,111.965971,5735877.263449,620068.491132,-111.965971,30U,6.164414,-0.571708,-0.096417,0.019038,-0.005322,6.214818
1403713569393829,INS_SOLUTION_GOOD,51.760900,-1.260210,111.967978,5735877.386283,620068.476808,-111.967978,30U,6.153659,-0.569367,-0.105362,0.018965,-0.005604,6.214657
1403713569413737,INS_SOLUTION_GOOD,51.760901,-1.260211,111.970208,5735877.508894,620068.462490,-111.970208,30U,6.141220,-0.566430,-0.116770,0.018905,-0.005990,6.214502
1403713569434077,INS_SOLUTION_GOOD,51.760902,-1.260211,111.972625,5735877.631287,620068.448316,-111.972625,30U,6.130955,-0.563029,-0.125879,0.018913,-0.006442,6.214363
1403713569454616,INS_SOLUTION_GOOD,51.760904,-1.260211,111.975200,5735877.753456,620068.434146,-111.975200,30U,6.119396,-0.557821,-0.129746,0.018872,-0.006979,6.214218
1403713569473178,INS_SOLUTION_GOOD,51.760905,-1.260211,111.977794,5735877.875407,620068.420120,-111.977794,30U,6.109152,-0.555316,-0.130483,0.018802,-0.007482,6.214075
1403713569493184,INS_SOLUTION_GOOD,51.760906,-1.260211,111.980432,5735877.997137,620068.406168,-111.980432,30U,6.096820,-0.549353,-0.132482,0.018712,-0.007999,6.213929
1403713569513250,INS_SOLUTION_GOOD,51.760907,-1.260211,111.983087,5735878.118646,620068.392291,-111.983087,30U,6.088103,-0.546546,-0.132795,0.018573,-0.008512,6.213754
1403713569533243,INS_SOLUTION_GOOD,51.760908,-1.260212,111.985704,5735878.239936,620068.378557,-111.985704,30U,6.077860,-0.543855,-0.128002,0.018371,-0.009012,6.213570
1403713569553659,INS_SOLUTION_GOOD,51.760909,-1.260212,111.988131,5735878.361114,620068.364756,-111.988131,30U,6.071745,-0.545913,-0.113479,0.018097,-0.009466,6.213392
1403713569573253,INS_SOLUTION_GOOD,51.760910,-1.260212,111.990248,5735878.482178,620068.350890,-111.990248,30U,6.058178,-0.550908,-0.098155,0.017826,-0.009791,6.213241
1403713569593495,INS_SOLUTION_GOOD,51.760911,-1.260212,111.992123,5735878.602907,620068.336962,-111.992123,30U,6.049059,-0.556973,-0.089999,0.017676,-0.010006,6.213109
1403713569613996,INS_SOLUTION_GOOD,51.760912,-1.260212,111.993898,5735878.723409,620068.322832,-111.993898,30U,6.037838,-0.564884,-0.088602,0.017700,-0.010248,6.213015
1403713569634473,INS_SOLUTION_GOOD,51.760913,-1.260212,111.995708,5735878.843686,620068.308639,-111.995708,30U,6.025857,-0.569885,-0.091603,0.017955,-0.010511,6.212951
1403713569654495,INS_SOLUTION_GOOD,51.760914,-1.260213,111.997528,5735878.963850,620068.294310,-111.997528,30U,6.017322,-0.571205,-0.091767,0.018227,-0.010794,6.212904
1403713569673106,INS_SOLUTION_GOOD,51.760915,-1.260213,111.999384,5735879.083681,620068.280059,-111.999384,30U,6.006656,-0.570266,-0.093663,0.018462,-0.011096,6.212869
1403713569693080,INS_SOLUTION_GOOD,51.760917,-1.260213,112.001211,5735879.203401,620068.265810,-112.001211,30U,5.999624,-0.568270,-0.087806,0.018578,-0.011445,6.212830
1403713569713223,INS_SOLUTION_GOOD,51.760918,-1.260213,112.002925,5735879.323011,620068.251632,-112.002925,30U,5.988163,-0.567875,-0.083190,0.018490,-0.011707,6.212802
1403713569733123,INS_SOLUTION_GOOD,51.760919,-1.260213,112.004496,5735879.442398,620068.237391,-112.004496,30U,5.980955,-0.565737,-0.075073,0.018239,-0.011885,6.212773
1403713569753341,INS_SOLUTION_GOOD,51.760920,-1.260213,112.005938,5735879.561563,620068.223224,-112.005938,30U,5.969916,-0.566157,-0.070782,0.017889,-0.011998,6.212725
1403713569773235,INS_SOLUTION_GOOD,51.760921,-1.260214,112.007298,5735879.680507,620068.209063,-112.007298,30U,5.963244,-0.566068,-0.065784,0.017493,-0.012054,6.212677
1403713569793227,INS_SOLUTION_GOOD,51.760922,-1.260214,112.008554,5735879.799339,620068.194904,-112.008554,30U,5.953880,-0.566180,-0.060843,0.017210,-0.012105,6.212600
1403713569814134,INS_SOLUTION_GOOD,51.760923,-1.260214,112.009742,5735879.917950,620068.180820,-112.009742,30U,5.943457,-0.565781,-0.057677,0.016948,-0.012127,6.212496
1403713569838120,INS_SOLUTION_GOOD,51.760924,-1.260214,112.010861,5735880.036448,620068.166669,-112.010861,30U,5.937326,-0.563343,-0.054755,0.016776,-0.012140,6.212372
1403713569853946,INS_SOLUTION_GOOD,51.760925,-1.260214,112.011967,5735880.154726,620068.152592,-112.011967,30U,5.926058,-0.561177,-0.056683,0.016648,-0.012163,6.212184
1403713569873869,INS_SOLUTION_GOOD,51.760926,-1.260214,112.013087,5735880.272894,620068.138588,-112.013087,30U,5.919184,-0.561097,-0.054704,0.016664,-0.012204,6.211985
1403713569893465,INS_SOLUTION_GOOD,51.760927,-1.260214,112.014218,5735880.390838,620068.124519,-112.014218,30U,5.907991,-0.560290,-0.057976,0.016687,-0.012279,6.211790
1403713569913524,INS_SOLUTION_GOOD,51.760927,-1.260212,112.029483,5735880.368465,620068.278131,-112.029483,30U,5.893034,-0.547682,-0.060690,0.016603,-0.012351,6.211438
1403713569933257,INS_SOLUTION_GOOD,51.760928,-1.260212,112.030723,5735880.485860,620068.264352,-112.030723,30U,5.885044,-0.547727,-0.063417,0.016227,-0.012557,6.211269
1403713569953211,INS_SOLUTION_GOOD,51.760929,-1.260213,112.031961,5735880.603145,620068.250644,-112.031961,30U,5.875541,-0.548308,-0.059680,0.015628,-0.012718,6.211097
1403713569973108,INS_SOLUTION_GOOD,51.760930,-1.260213,112.033113,5735880.720316,620068.236801,-112.033113,30U,5.870709,-0.551163,-0.055304,0.015164,-0.012828,6.210936
1403713569993106,INS_SOLUTION_GOOD,51.760931,-1.260213,112.034143,5735880.837375,620068.222961,-112.034143,30U,5.865280,-0.557276,-0.046612,0.014937,-0.012838,6.210812
1403713570014016,INS_SOLUTION_GOOD,51.760932,-1.260213,112.035040,5735880.954320,620068.208985,-112.035040,30U,5.859996,-0.561497,-0.043181,0.014990,-0.012743,6.210718
1403713570034257,INS_SOLUTION_GOOD,51.760933,-1.260213,112.035892,5735881.071040,620068.194946,-112.035892,30U,5.855771,-0.562950,-0.041484,0.015228,-0.012604,6.210636
1403713570054262,INS_SOLUTION_GOOD,51.760934,-1.260213,112.036729,5735881.187872,620068.180904,-112.036729,30U,5.852797,-0.563610,-0.042535,0.015520,-0.012482,6.210570
1403713570073243,INS_SOLUTION_GOOD,51.760935,-1.260214,112.037591,5735881.304482,620068.166867,-112.037591,30U,5.847707,-0.562815,-0.045099,0.015798,-0.012408,6.210504
1403713570093553,INS_SOLUTION_GOOD,51.760937,-1.260214,112.038533,5735881.421091,620068.152831,-112.038533,30U,5.845877,-0.559144,-0.049702,0.015949,-0.012474,6.210423
1403713570113890,INS_SOLUTION_GOOD,51.760938,-1.260214,112.039598,5735881.537704,620068.138932,-112.039598,30U,5.846536,-0.555907,-0.057192,0.015882,-0.012764,6.210318
1403713570133495,INS_SOLUTION_GOOD,51.760939,-1.260214,112.040776,5735881.654206,620068.125036,-112.040776,30U,5.837725,-0.551422,-0.058852,0.015592,-0.013358,6.210179
1403713570153515,INS_SOLUTION_GOOD,51.760940,-1.260214,112.041946,5735881.770599,620068.111281,-112.041946,30U,5.828801,-0.549774,-0.059002,0.015072,-0.013845,6.209990
1403713570173634,INS_SOLUTION_GOOD,51.760941,-1.260214,112.043096,5735881.886771,620068.097530,-112.043096,30U,5.827156,-0.550394,-0.056513,0.014633,-0.014242,6.209769
1403713570193495,INS_SOLUTION_GOOD,51.760942,-1.260215,112.044252,5735882.002940,620068.083711,-112.044252,30U,5.818282,-0.553361,-0.059123,0.014116,-0.014483,6.209550
1403713570214111,INS_SOLUTION_GOOD,51.760943,-1.260215,112.045402,5735882.118997,620068.069826,-112.045402,30U,5.817586,-0.555748,-0.053233,0.013790,-0.014625,6.209336
1403713570234267,INS_SOLUTION_GOOD,51.760944,-1.260215,112.046389,5735882.234943,620068.055943,-112.046389,30U,5.812482,-0.560425,-0.048252,0.013698,-0.014612,6.209099
1403713570255101,INS_SOLUTION_GOOD,51.760945,-1.260215,112.047345,5735882.350883,620068.041853,-112.047345,30U,5.808307,-0.568469,-0.046228,0.013824,-0.014544,6.208938
1403713570273344,INS_SOLUTION_GOOD,51.760946,-1.260215,112.048315,5735882.466711,620068.027697,-112.048315,30U,5.807067,-0.568128,-0.049818,0.013990,-0.014549,6.208818
1403713570293467,INS_SOLUTION_GOOD,51.760947,-1.260215,112.049312,5735882.582429,620068.013613,-112.049312,30U,5.802897,-0.569040,-0.049256,0.014032,-0.014537,6.208676
1403713570313342,INS_SOLUTION_GOOD,51.760948,-1.260216,112.050320,5735882.698146,620067.999459,-112.050320,30U,5.801820,-0.571023,-0.051830,0.014142,-0.014618,6.208572
1403713570334096,INS_SOLUTION_GOOD,51.760949,-1.260216,112.051352,5735882.813750,620067.985239,-112.051352,30U,5.790733,-0.570590,-0.051741,0.014160,-0.014690,6.208471
1403713570353602,INS_SOLUTION_GOOD,51.760950,-1.260216,112.052346,5735882.929133,620067.971094,-112.052346,30U,5.786008,-0.572366,-0.047908,0.013918,-0.014592,6.208421
1403713570373261,INS_SOLUTION_GOOD,51.760951,-1.260216,112.053207,5735883.044514,620067.956879,-112.053207,30U,5.784186,-0.570018,-0.036966,0.013162,-0.014268,6.208379
