source_timestamp,destination_timestamp,x,y,z,roll,pitch,yaw
1403713564283985,1403713564221485,5.638700e-01,-1.379527e-02,-2.662081e-02,7.732189e-04,-1.843985e-03,2.657624e-04
1403713564346488,1403713564283985,5.482184e-01,-5.325297e-03,-3.339217e-02,5.261347e-04,-1.111196e-03,2.940542e-04
1403713564408988,1403713564346488,5.668287e-01,-2.114472e-02,-4.382377e-02,-2.063791e-04,-8.011815e-04,8.427700e-04
1403713564471491,1403713564408988,5.440316e-01,-2.565637e-03,-3.428380e-02,7.697912e-04,6.947276e-04,-1.113014e-04
1403713564533990,1403713564471491,5.420665e-01,-2.563459e-03,-3.353883e-02,1.327909e-03,1.934277e-03,-6.019927e-05
1403713564596492,1403713564533990,5.511717e-01,-1.838073e-03,-3.110752e-02,5.697827e-04,2.460690e-03,1.374208e-05
1403713564658993,1403713564596492,5.435542e-01,-3.098433e-03,-2.944123e-02,-2.978404e-04,1.026547e-03,1.289505e-04
1403713564721495,1403713564658993,5.371378e-01,-1.605430e-03,-2.994272e-02,1.145807e-03,3.296955e-04,-5.396317e-05
1403713564783995,1403713564721495,5.395394e-01,-4.285543e-03,-2.954200e-02,9.750884e-04,-4.225755e-04,-1.180310e-04
1403713564846495,1403713564783995,5.361320e-01,-7.886704e-04,-3.024409e-02,4.926053e-04,-8.831543e-04,-3.125445e-04
1403713564908997,1403713564846495,5.362927e-01,-2.934284e-03,-3.192871e-02,-4.757393e-04,-1.088711e-03,-1.795733e-04
1403713564971498,1403713564908997,5.350085e-01,-3.040490e-03,-3.231734e-02,6.533031e-05,-4.417697e-04,-1.443213e-04
1403713565034001,1403713564971498,5.305095e-01,-2.752655e-03,-3.148389e-02,7.457415e-05,-4.834489e-06,-7.369712e-05
1403713565096501,1403713565034001,5.312343e-01,-3.833633e-03,-3.143289e-02,-1.928352e-04,-7.261668e-04,-9.850576e-05
1403713565159002,1403713565096501,5.353377e-01,-4.129282e-03,-2.997638e-02,-3.409547e-04,-7.191553e-04,-2.316846e-04
1403713565221503,1403713565159002,5.316429e-01,-2.048847e-03,-3.119020e-02,1.101158e-03,-9.673701e-04,-3.004244e-04
1403713565284006,1403713565221503,5.328050e-01,-2.915453e-03,-2.971545e-02,1.030876e-04,-8.416461e-04,-2.590254e-04
1403713565346507,1403713565284006,5.315474e-01,-7.562390e-03,-2.896880e-02,-2.345055e-03,-1.768207e-03,2.316237e-05
1403713565409007,1403713565346507,5.343872e-01,-1.119246e-03,-3.161873e-02,-3.719212e-04,-5.122517e-04,-7.770829e-05
1403713565471508,1403713565409007,5.317323e-01,-4.294113e-03,-3.250677e-02,-4.429800e-05,1.127632e-03,1.019973e-04
1403713565534009,1403713565471508,5.284917e-01,-2.931215e-03,-3.222556e-02,1.332187e-03,2.343947e-03,-1.408308e-04
1403713565596510,1403713565534009,5.228980e-01,-3.924018e-03,-3.242376e-02,-2.457855e-04,1.564530e-03,-2.554709e-04
1403713565659010,1403713565596510,5.240982e-01,-5.053870e-03,-2.699048e-02,-1.105144e-03,1.647442e-03,5.388158e-05
1403713565721512,1403713565659010,5.227885e-01,-2.318764e-03,-2.657879e-02,-6.610465e-05,2.588981e-04,3.342860e-04
1403713565784014,1403713565721512,5.284352e-01,-1.097850e-03,-2.534102e-02,-5.762531e-04,-1.200809e-03,1.215585e-04
1403713565846515,1403713565784014,5.200035e-01,-4.766843e-03,-3.040495e-02,-7.067803e-04,-2.118868e-03,-1.543313e-04
1403713565909016,1403713565846515,5.259244e-01,-4.971330e-03,-2.912304e-02,-9.794752e-04,-1.145322e-03,-7.247112e-05
1403713565971519,1403713565909016,5.277852e-01,-5.233142e-03,-3.134835e-02,-5.196027e-04,-6.699505e-04,2.382401e-05
1403713566034018,1403713565971519,5.214048e-01,-4.468300e-03,-2.881776e-02,-1.150566e-03,-3.358950e-04,1.827728e-05
1403713566096519,1403713566034018,5.266482e-01,-5.327580e-03,-2.835767e-02,-1.796366e-03,-3.910423e-04,1.776221e-04
1403713566159019,1403713566096519,5.174339e-01,-4.333535e-03,-2.991963e-02,2.403851e-04,5.808081e-04,1.061416e-05
1403713566221519,1403713566159019,5.163905e-01,-3.646669e-03,-3.040952e-02,7.282057e-04,8.545500e-04,-1.903590e-04
1403713566284021,1403713566221519,5.141262e-01,-3.669749e-03,-3.064258e-02,5.670423e-04,7.978019e-04,-4.355215e-04
1403713566346523,1403713566284021,5.173797e-01,-2.744916e-03,-2.913773e-02,7.962897e-04,9.587795e-04,-5.080717e-04
1403713566409023,1403713566346523,5.073656e-01,-4.426464e-03,-2.925708e-02,-4.723316e-04,8.122398e-04,-3.762993e-04
1403713566471523,1403713566409023,5.076864e-01,-4.016449e-03,-2.913161e-02,8.010990e-04,5.271609e-04,-2.919318e-04
1403713566534026,1403713566471523,5.115501e-01,-2.841586e-03,-2.936317e-02,1.505488e-03,-3.722689e-04,-3.523799e-04
1403713566596527,1403713566534026,5.091646e-01,-4.478524e-03,-2.968643e-02,-3.257864e-04,-9.242122e-04,-1.973228e-04
1403713566659029,1403713566596527,5.098744e-01,-4.983925e-03,-2.973637e-02,-2.497802e-04,-9.094252e-04,-1.444207e-04
1403713566721530,1403713566659029,5.151350e-01,-5.270415e-03,-2.844700e-02,-8.659714e-04,-3.402674e-04,-1.839183e-04
1403713566784032,1403713566721530,5.083028e-01,-6.205379e-03,-2.981494e-02,8.065583e-04,8.190961e-05,-1.621367e-04
1403713566846532,1403713566784032,5.086962e-01,-2.535081e-03,-2.944975e-02,1.291954e-03,9.749967e-05,-4.046541e-04
1403713566909034,1403713566846532,5.053885e-01,-4.781032e-03,-2.861037e-02,-5.139123e-04,2.376027e-04,-2.770042e-04
1403713566971535,1403713566909034,5.045472e-01,-3.591650e-03,-2.836701e-02,-4.972958e-04,6.675540e-04,-2.085125e-04
1403713567034037,1403713566971535,5.005312e-01,-3.929916e-03,-2.939142e-02,-1.094689e-04,4.139474e-04,-1.072402e-04
1403713567096540,1403713567034037,5.016706e-01,-4.000724e-03,-2.829800e-02,5.403944e-04,3.969521e-04,-1.107514e-04
1403713567159040,1403713567096540,4.993602e-01,-3.459503e-03,-2.812398e-02,5.328191e-04,-1.745932e-04,-2.542625e-04
1403713567221546,1403713567159040,5.003359e-01,-2.682386e-03,-2.794846e-02,-2.976157e-04,-5.349037e-04,-2.953573e-04
1403713567284045,1403713567221546,5.050245e-01,-4.123291e-03,-2.640298e-02,-7.857548e-05,-6.172131e-04,-3.387763e-05
1403713567346545,1403713567284045,5.074983e-01,-1.308592e-03,-2.826224e-02,3.302731e-04,-3.650296e-04,-1.693331e-04
1403713567409049,1403713567346545,4.988522e-01,-3.173990e-03,-2.851712e-02,1.131434e-03,-4.838542e-05,-2.848822e-04
1403713567471547,1403713567409049,4.873696e-01,-2.622062e-03,-2.962976e-02,5.764453e-04,-4.166658e-04,-4.212718e-04
1403713567534048,1403713567471547,4.934208e-01,-2.887112e-03,-2.764382e-02,4.610657e-05,-1.064391e-03,-5.911461e-04
1403713567596549,1403713567534048,4.942989e-01,-3.486882e-03,-2.848442e-02,8.725182e-04,-1.072050e-03,-5.880736e-04
1403713567659052,1403713567596549,4.856538e-01,-1.205677e-03,-2.890922e-02,1.860368e-03,-7.207493e-04,-4.791383e-04
1403713567721553,1403713567659052,4.845156e-01,-6.230753e-03,-2.859918e-02,-1.811574e-04,-1.290731e-03,-3.104013e-04
1403713567784054,1403713567721553,4.770326e-01,-3.233611e-03,-2.501896e-02,-3.546764e-04,-2.113449e-03,-2.896381e-04
1403713567846555,1403713567784054,4.726697e-01,-7.537663e-03,-2.734258e-02,-3.212479e-03,-1.840609e-03,-1.796804e-05
1403713567909057,1403713567846555,4.745357e-01,-3.703964e-03,-2.848182e-02,-1.924037e-03,4.148778e-04,-8.751989e-05
1403713567971558,1403713567909057,4.650226e-01,-4.001516e-03,-3.073921e-02,4.549453e-04,2.664613e-03,-3.315474e-04
1403713568034060,1403713567971558,4.567495e-01,-1.180265e-03,-3.262482e-02,1.205468e-03,3.328469e-03,-7.625331e-04
1403713568096561,1403713568034060,4.565702e-01,-3.608807e-03,-3.005395e-02,-1.934447e-03,3.370169e-03,-2.573681e-04
1403713568159064,1403713568096561,4.513969e-01,-1.939533e-03,-2.763609e-02,5.130194e-04,2.984309e-03,2.089909e-05
1403713568221564,1403713568159064,4.492412e-01,-3.426974e-03,-2.322234e-02,-9.604365e-04,1.524370e-03,3.366296e-04
1403713568284065,1403713568221564,4.516791e-01,-3.861475e-03,-2.128766e-02,-8.895738e-04,-8.581830e-04,-7.262015e-05
1403713568346567,1403713568284065,4.493689e-01,-5.833274e-03,-2.201261e-02,-1.584118e-03,-2.992956e-03,-3.283173e-04
1403713568409068,1403713568346567,4.450798e-01,-3.684818e-03,-2.649671e-02,8.864104e-04,-2.217643e-03,-1.169961e-04
1403713568471570,1403713568409068,4.418289e-01,-1.188155e-03,-2.899961e-02,2.074568e-03,-9.757193e-04,-1.643881e-04
1403713568534072,1403713568471570,4.391401e-01,1.086919e-03,-2.981483e-02,2.720030e-03,-4.423692e-04,-6.914506e-04
1403713568596572,1403713568534072,4.337318e-01,-1.989873e-03,-2.789278e-02,9.036055e-04,-3.726314e-05,-9.650785e-04
1403713568659074,1403713568596572,4.306544e-01,-4.322115e-04,-2.695160e-02,1.255729e-03,6.318585e-04,-8.185519e-04
1403713568721575,1403713568659074,4.254741e-01,-3.943727e-03,-2.519367e-02,7.729474e-05,1.512244e-03,-2.226502e-04
1403713568784077,1403713568721575,4.255806e-01,-4.229916e-03,-2.377447e-02,-6.097064e-04,1.625711e-04,-1.149262e-04
1403713568846578,1403713568784077,4.249473e-01,-4.226185e-03,-2.408740e-02,-8.971850e-04,-1.116788e-03,-4.472263e-04
1403713568909080,1403713568846578,4.235954e-01,-3.631803e-03,-2.487365e-02,-7.614497e-04,-1.163562e-03,-5.238905e-04
1403713568971582,1403713568909080,4.198803e-01,-2.826689e-03,-2.488373e-02,-6.770653e-04,-5.432368e-04,-1.814021e-04
1403713569034083,1403713568971582,4.179804e-01,-2.445601e-03,-2.473644e-02,-8.537864e-04,-6.361092e-04,-6.702091e-05
1403713569096584,1403713569034083,4.151260e-01,-2.423139e-03,-2.429206e-02,-8.721066e-04,-1.001107e-03,-2.381045e-04
1403713569159086,1403713569096584,4.165331e-01,-2.146099e-04,-2.541426e-02,6.117329e-04,3.407742e-04,-4.180532e-04
1403713569221590,1403713569159086,4.104563e-01,-1.541677e-03,-2.765473e-02,1.139888e-03,1.622772e-03,-2.911500e-04
1403713569284089,1403713569221590,4.067612e-01,-1.499655e-03,-2.724853e-02,8.206811e-04,1.718177e-03,-2.513866e-04
1403713569346590,1403713569284089,4.056180e-01,-1.281952e-03,-2.418686e-02,-1.786496e-04,1.023323e-03,-3.085446e-04
1403713569409092,1403713569346590,4.018383e-01,-2.536698e-03,-2.290169e-02,-5.047728e-04,3.651422e-04,-6.054116e-04
1403713569471593,1403713569409092,4.032336e-01,-4.229557e-03,-2.141585e-02,-1.109081e-03,1.207798e-03,-6.184524e-04
1403713569534095,1403713569471593,3.978622e-01,-6.626030e-03,-2.279210e-02,-1.768133e-03,5.636884e-04,-4.614086e-04
1403713569596596,1403713569534095,3.987208e-01,-5.717523e-03,-2.092385e-02,-4.232072e-04,-7.074267e-04,-3.654229e-04
1403713569659098,1403713569596596,3.988218e-01,-3.255344e-03,-2.249293e-02,-2.284442e-04,-1.549579e-03,-4.242661e-04
1403713569721597,1403713569659098,3.958109e-01,-2.732739e-03,-2.267601e-02,-3.613049e-04,-1.582423e-03,-4.829165e-04
1403713569784099,1403713569721597,3.934347e-01,-3.573579e-03,-2.262362e-02,-7.937133e-04,-1.093059e-03,-4.299599e-04
1403713569846599,1403713569784099,3.893068e-01,-2.249776e-03,-2.393039e-02,7.031971e-04,-9.102011e-04,-2.433057e-04
1403713569909099,1403713569846599,3.906660e-01,-2.658303e-03,-2.256120e-02,1.775765e-04,-1.006950e-03,-1.400760e-04
1403713569971599,1403713569909099,3.878899e-01,-2.247429e-03,-2.174280e-02,-1.041425e-03,-3.404776e-04,-1.208353e-04
1403713570034100,1403713569971599,3.948236e-01,-1.986156e-03,-2.129222e-02,-7.562480e-04,-6.506397e-05,-3.705169e-04
1403713570096600,1403713570034100,3.837673e-01,-7.723090e-03,-2.172244e-02,-2.493099e-04,-2.536017e-04,-4.624584e-04
1403713570159101,1403713570096600,3.840855e-01,-7.589384e-03,-2.163601e-02,-1.511454e-03,-5.361020e-04,-3.610060e-04
1403713570221602,1403713570159101,3.864632e-01,-4.454331e-03,-2.139703e-02,-5.198001e-05,2.106286e-04,-1.978240e-04
1403713570284102,1403713570221602,3.845099e-01,-4.095689e-03,-2.140953e-02,5.431364e-04,9.768105e-05,-1.060699e-04
1403713570346603,1403713570284102,3.812655e-01,-4.578647e-03,-1.924048e-02,-1.060098e-03,-1.551710e-03,-4.079542e-04
1403713570409105,1403713570346603,3.865197e-01,-5.740750e-03,-1.888520e-02,-1.339567e-03,-6.012142e-04,-5.286896e-04
1403713570471604,1403713570409105,3.880509e-01,-3.221258e-03,-2.034846e-02,1.232586e-04,1.594909e-04,-4.213448e-04
1403713570534104,1403713570471604,3.835167e-01,-2.065295e-03,-2.026326e-02,-6.338590e-05,-8.784814e-05,-2.680939e-04
1403713570596605,1403713570534104,3.717433e-01,-5.789613e-03,-2.448056e-02,-2.408826e-03,1.326112e-03,3.802534e-06
1403713570659106,1403713570596605,3.705937e-01,-2.297038e-03,-2.401442e-02,-8.519413e-04,1.915460e-03,-3.023530e-04
1403713570721605,1403713570659106,3.808096e-01,-1.945928e-03,-2.094430e-02,-4.428760e-04,1.697519e-03,-5.614269e-04
1403713570784107,1403713570721605,3.808292e-01,-2.612359e-03,-2.076197e-02,1.114347e-03,2.793528e-03,-4.938150e-04
1403713570846609,1403713570784107,3.763698e-01,-6.599109e-04,-1.945617e-02,8.404360e-04,1.790397e-03,-2.477022e-04
1403713570909113,1403713570846609,3.697081e-01,-4.836202e-04,-1.875644e-02,9.311584e-04,2.857586e-04,-3.251927e-04
1403713570971611,1403713570909113,3.707244e-01,-2.631910e-03,-1.866413e-02,1.275648e-04,4.430866e-04,-4.707050e-04
1403713571034111,1403713570971611,3.658328e-01,-2.766963e-03,-1.945694e-02,-9.740029e-05,-3.097093e-04,-3.748828e-04
1403713571096613,1403713571034111,3.706017e-01,-6.118077e-03,-1.923357e-02,-5.731981e-04,-1.464816e-03,-1.992536e-04
1403713571159112,1403713571096613,3.664464e-01,-4.964961e-03,-2.070853e-02,-2.089167e-03,-1.523410e-03,-2.669719e-04
1403713571221612,1403713571159112,3.719342e-01,-1.983967e-03,-1.988423e-02,-1.304790e-03,-1.102273e-03,-5.631796e-04
1403713571284113,1403713571221612,3.653234e-01,-3.524680e-03,-2.214292e-02,2.996671e-04,-8.239815e-04,-5.822891e-04
1403713571346613,1403713571284113,3.662131e-01,-2.181484e-03,-2.202487e-02,4.434767e-05,2.022667e-04,-6.432111e-04
1403713571409116,1403713571346613,3.643159e-01,-2.649613e-03,-2.137109e-02,6.961283e-05,1.765583e-04,-4.751680e-04
1403713571471618,1403713571409116,3.628601e-01,-1.237673e-04,-2.058649e-02,5.816139e-04,2.712740e-04,-5.407985e-04
1403713571534119,1403713571471618,3.580190e-01,-2.044630e-03,-2.252339e-02,1.219461e-04,5.807102e-04,-2.681355e-04
1403713571596617,1403713571534119,3.571724e-01,-4.301097e-03,-2.129326e-02,-1.372039e-03,4.803059e-04,7.423261e-05
1403713571659119,1403713571596617,3.614557e-01,-5.009201e-03,-1.824080e-02,-1.693734e-03,2.938324e-05,6.422192e-05
1403713571721619,1403713571659119,3.638638e-01,-4.349176e-03,-1.670047e-02,-6.834124e-04,-3.893259e-04,-1.239968e-04
1403713571784124,1403713571721619,3.573766e-01,-4.205544e-03,-2.028924e-02,-7.714569e-04,-7.996020e-04,-2.154721e-04
1403713571846623,1403713571784124,3.547907e-01,-3.231722e-03,-2.023946e-02,-1.322313e-03,-5.087351e-04,-2.248740e-04
1403713571909125,1403713571846623,3.571265e-01,-3.578078e-03,-2.059840e-02,-1.148200e-03,7.476070e-05,-1.607959e-04
1403713571971626,1403713571909125,3.558651e-01,-2.632970e-03,-1.953194e-02,-6.147967e-04,-6.242868e-04,-2.085248e-04
1403713572034127,1403713571971626,3.565990e-01,-4.055523e-03,-1.844345e-02,-1.797191e-03,-1.746378e-03,-2.733775e-04
1403713572096628,1403713572034127,3.538090e-01,-5.417925e-03,-1.913656e-02,-2.274760e-03,-1.594342e-03,-1.737143e-04
1403713572159134,1403713572096628,3.497807e-01,-7.702021e-03,-1.876847e-02,-3.103864e-03,-1.294444e-03,-2.516606e-04
1403713572221630,1403713572159134,3.496551e-01,-2.396445e-03,-2.082314e-02,4.015345e-04,5.538130e-04,-3.270761e-04
1403713572284135,1403713572221630,3.491485e-01,-1.526903e-03,-2.148863e-02,6.487156e-04,1.402368e-03,3.761806e-06
1403713572346633,1403713572284135,3.482988e-01,-1.770359e-03,-2.079568e-02,-7.831135e-04,4.650099e-04,3.114531e-05
1403713572409136,1403713572346633,3.490938e-01,-1.221307e-03,-2.079653e-02,6.034787e-05,-1.782610e-04,2.637123e-05
1403713572471638,1403713572409136,3.493485e-01,-2.604408e-04,-2.040215e-02,8.692063e-04,4.535014e-04,3.531207e-05
1403713572534138,1403713572471638,3.458994e-01,-2.437885e-03,-2.048789e-02,-3.840362e-04,1.263179e-03,2.810187e-04
1403713572596638,1403713572534138,3.436912e-01,-3.394526e-03,-2.031027e-02,-1.464696e-03,1.098960e-03,6.078241e-04
1403713572659138,1403713572596638,3.433417e-01,-4.155205e-03,-1.807789e-02,-1.547829e-03,9.741391e-04,6.260008e-04
1403713572721643,1403713572659138,3.437328e-01,-2.775275e-03,-1.992089e-02,3.610236e-04,-6.116004e-04,-2.164076e-04
1403713572784141,1403713572721643,3.424818e-01,-2.459882e-03,-1.989178e-02,-7.448822e-04,-5.710419e-04,-6.655003e-04
1403713572846644,1403713572784141,3.427531e-01,-1.198950e-03,-1.983061e-02,2.606720e-04,-3.128240e-04,-2.603803e-04
1403713572909146,1403713572846644,3.424397e-01,-7.233744e-04,-2.072629e-02,1.355746e-03,-1.445814e-04,1.968421e-04
1403713572971645,1403713572909146,3.406885e-01,-2.629311e-04,-2.022550e-02,3.091813e-04,-7.048402e-05,1.171573e-04
1403713573034146,1403713572971645,3.400081e-01,-1.540144e-03,-1.993627e-02,-2.242690e-04,-2.444889e-04,-5.452742e-05
1403713573096648,1403713573034146,3.383847e-01,-2.104659e-03,-2.003703e-02,-4.749718e-04,-3.097809e-04,-2.011202e-04
1403713573159149,1403713573096648,3.370813e-01,-3.050117e-03,-1.910316e-02,-1.004206e-03,-1.286600e-04,-2.221051e-04
1403713573221651,1403713573159149,3.412824e-01,-1.835703e-03,-1.901736e-02,2.489985e-04,-3.478279e-04,-1.498012e-04
1403713573284158,1403713573221651,3.357606e-01,-2.783701e-03,-1.990019e-02,-4.683314e-04,-3.763530e-04,-2.214992e-05
1403713573346653,1403713573284158,3.343123e-01,-2.231140e-03,-2.042246e-02,4.840679e-05,3.404081e-04,-8.228635e-05
1403713573409155,1403713573346653,3.351823e-01,-1.887887e-03,-1.958593e-02,2.686982e-04,3.818141e-04,-1.407696e-04
1403713573471657,1403713573409155,3.326968e-01,-3.243185e-03,-2.046578e-02,-9.154442e-04,8.019497e-05,1.711477e-05
1403713573534158,1403713573471657,3.319675e-01,-2.787564e-03,-1.935789e-02,-3.324420e-04,-6.541717e-05,-6.183859e-05
1403713573596659,1403713573534158,3.341978e-01,-2.983807e-03,-1.894029e-02,-4.648818e-04,-5.817622e-04,-3.649529e-05
1403713573659163,1403713573596659,3.335611e-01,-3.498600e-03,-1.799395e-02,-1.050421e-03,-4.443183e-04,-1.877419e-05
1403713573721667,1403713573659163,3.305145e-01,-2.038315e-03,-1.718166e-02,4.796048e-04,-7.727687e-04,-8.211303e-05
1403713573784167,1403713573721667,3.334134e-01,-2.984595e-03,-1.770013e-02,3.650112e-04,-7.912193e-04,4.233070e-05
1403713573846666,1403713573784167,3.255908e-01,-2.134349e-03,-1.974146e-02,-3.995257e-04,-1.257862e-05,-2.205505e-04
1403713573909169,1403713573846666,3.236558e-01,-2.169477e-03,-2.142848e-02,8.303862e-05,1.464244e-03,-1.093539e-04
1403713573971669,1403713573909169,3.228583e-01,-2.013970e-03,-2.227599e-02,-7.419328e-04,1.732099e-03,1.851326e-04
1403713574034169,1403713573971669,3.228286e-01,-2.288409e-03,-2.166775e-02,-6.299319e-04,1.315993e-03,4.460308e-04
1403713574096668,1403713574034169,3.213178e-01,-1.276929e-03,-1.893901e-02,-1.152417e-04,8.569944e-04,6.009803e-04
1403713574159171,1403713574096668,3.244228e-01,-2.794005e-03,-1.727699e-02,-4.929663e-04,5.176264e-04,7.024931e-04
1403713574221670,1403713574159171,3.210860e-01,-9.174384e-04,-1.611661e-02,1.012580e-04,1.080564e-03,5.258289e-04
1403713574284171,1403713574221670,3.178521e-01,-6.154241e-04,-1.541071e-02,3.718602e-04,8.897109e-04,3.166063e-04
1403713574346672,1403713574284171,3.195344e-01,-7.898978e-04,-1.547805e-02,-4.291406e-04,1.200109e-04,4.704161e-04
1403713574409172,1403713574346672,3.184590e-01,4.134941e-04,-1.554678e-02,1.117022e-03,-1.701894e-03,5.551178e-04
1403713574471672,1403713574409172,3.194547e-01,-1.408271e-03,-1.815342e-02,6.818299e-04,-2.349654e-03,7.299133e-04
1403713574534174,1403713574471672,3.162344e-01,-5.528795e-04,-1.968759e-02,6.887480e-04,-2.505356e-03,4.910574e-04
1403713574596673,1403713574534174,3.222030e-01,4.514084e-04,-2.134394e-02,1.318949e-03,-1.652162e-03,4.836571e-04
1403713574659177,1403713574596673,3.121197e-01,-7.408580e-04,-2.061766e-02,6.296273e-04,-3.034308e-04,3.936056e-04
1403713574721676,1403713574659177,3.121360e-01,-2.071350e-03,-1.976088e-02,-3.564800e-05,-3.273796e-05,3.875900e-04
1403713574784176,1403713574721676,3.101052e-01,-2.120601e-03,-1.981580e-02,6.034974e-04,1.742548e-04,3.453164e-04
1403713574846678,1403713574784176,3.056393e-01,-9.957471e-05,-2.009429e-02,3.754253e-04,4.546635e-04,5.720679e-04
1403713574909180,1403713574846678,3.053102e-01,-1.699662e-03,-1.795359e-02,-4.621574e-04,1.143450e-03,6.385853e-04
1403713574971681,1403713574909180,3.050644e-01,-1.907041e-03,-1.788755e-02,-5.379788e-04,1.192817e-03,3.111806e-04
1403713575034184,1403713574971681,3.063118e-01,-3.141774e-03,-1.641540e-02,-1.235318e-03,4.140051e-04,8.013187e-05
1403713575096684,1403713575034184,3.052730e-01,-4.041125e-03,-1.611951e-02,-1.162608e-03,-2.696393e-04,8.686563e-05
1403713575159186,1403713575096684,3.031859e-01,-9.393457e-04,-1.533157e-02,4.631457e-04,-1.192952e-03,8.658300e-05
1403713575221687,1403713575159186,2.984675e-01,-1.209445e-04,-1.685306e-02,1.110899e-03,-1.134303e-03,3.044034e-04
1403713575284189,1403713575221687,2.995011e-01,-3.576317e-05,-1.684457e-02,1.313263e-03,-6.855881e-05,4.724447e-04
1403713575346690,1403713575284189,2.982403e-01,7.058429e-04,-1.788028e-02,1.342599e-03,3.595984e-04,2.772203e-04
1403713575409191,1403713575346690,2.921045e-01,1.340446e-03,-1.899629e-02,1.489119e-03,1.396041e-05,-2.366960e-04
1403713575471692,1403713575409191,2.906052e-01,-1.981807e-04,-1.919392e-02,5.395369e-04,1.754447e-05,-1.171138e-04
1403713575534194,1403713575471692,2.906913e-01,-2.171207e-03,-1.957056e-02,1.760433e-04,3.315241e-04,2.784740e-04
1403713575596696,1403713575534194,2.875165e-01,-2.740673e-03,-1.854035e-02,-8.263827e-04,5.412763e-04,6.104119e-04
1403713575659197,1403713575596696,2.812489e-01,-3.887513e-03,-1.886580e-02,-1.972000e-03,6.941737e-04,6.808470e-04
1403713575721698,1403713575659197,2.830492e-01,-3.985081e-03,-1.682336e-02,-1.556495e-03,1.591246e-03,3.679996e-04
1403713575784200,1403713575721698,2.810528e-01,-3.077007e-03,-1.633330e-02,-8.950559e-04,1.570836e-03,-6.852094e-05
1403713575846702,1403713575784200,2.788758e-01,-1.230467e-03,-1.575484e-02,3.390100e-04,9.703587e-04,-2.548762e-04
1403713575909203,1403713575846702,2.763785e-01,-7.714640e-05,-1.598532e-02,7.725056e-04,5.638584e-04,-1.137812e-04
1403713575971704,1403713575909203,2.762022e-01,1.243064e-04,-1.670480e-02,1.218451e-03,4.623329e-04,1.358470e-04
1403713576034205,1403713575971704,2.745850e-01,5.342408e-04,-1.564036e-02,7.182415e-04,1.431103e-04,2.273273e-04
1403713576096707,1403713576034205,2.718841e-01,-1.428141e-03,-1.644195e-02,4.919979e-04,-5.695332e-04,1.604555e-04
1403713576159209,1403713576096707,2.665787e-01,-2.040398e-03,-1.721111e-02,-3.422106e-04,-9.100038e-04,1.044916e-04
1403713576221710,1403713576159209,2.662904e-01,-3.582115e-03,-1.621928e-02,-1.343697e-03,-7.135687e-04,2.412241e-04
1403713576284211,1403713576221710,2.651964e-01,-4.331966e-03,-1.494284e-02,-1.655807e-03,-4.788448e-04,2.654499e-04
1403713576346713,1403713576284211,2.644105e-01,-3.284190e-03,-1.577838e-02,-3.025467e-04,-4.357143e-05,1.856321e-05
1403713576409214,1403713576346713,2.614072e-01,-1.920995e-03,-1.570135e-02,-2.558393e-05,8.090913e-05,-8.976943e-05
1403713576471715,1403713576409214,2.614716e-01,-1.735237e-03,-1.412008e-02,-7.365985e-04,-4.827738e-04,3.422915e-05
1403713576534217,1403713576471715,2.577587e-01,-3.761922e-03,-1.354826e-02,-1.508177e-03,-1.467065e-03,1.166222e-04
1403713576596718,1403713576534217,2.551571e-01,-3.087898e-03,-1.342959e-02,-1.056323e-03,-1.964648e-03,7.236898e-05
1403713576659220,1403713576596718,2.534590e-01,-3.467723e-03,-1.399519e-02,-3.311103e-04,-1.091368e-03,3.973255e-05
1403713576721724,1403713576659220,2.476681e-01,-7.234899e-04,-1.676024e-02,1.551356e-03,5.525280e-04,-1.153252e-04
1403713576784225,1403713576721724,2.463915e-01,1.158763e-03,-1.710672e-02,2.595556e-03,1.948367e-03,-4.672244e-05
1403713576846724,1403713576784225,2.439327e-01,1.057364e-05,-1.600607e-02,8.870239e-04,1.606675e-03,1.330230e-04
1403713576909226,1403713576846724,2.415676e-01,-7.509798e-04,-1.432865e-02,-9.512047e-04,-1.470941e-04,2.160583e-04
1403713576971727,1403713576909226,2.383712e-01,-2.897253e-03,-1.337012e-02,-7.895160e-04,-1.176708e-03,2.104582e-04
1403713577034229,1403713576971727,2.399145e-01,-2.801350e-03,-1.299856e-02,1.506849e-04,-1.282440e-03,4.289422e-05
1403713577096730,1403713577034229,2.340320e-01,-4.333895e-03,-1.518403e-02,-1.169453e-03,-6.731572e-04,1.164541e-04
1403713577159231,1403713577096730,2.333638e-01,-3.255377e-03,-1.437884e-02,-1.757452e-03,2.513979e-04,1.988206e-04
1403713577221732,1403713577159231,2.297033e-01,-1.467265e-03,-1.391602e-02,-7.171616e-04,1.195482e-03,4.475418e-04
1403713577284237,1403713577221732,2.344225e-01,-2.326454e-03,-1.239942e-02,-1.793718e-05,1.715446e-03,6.042320e-04
1403713577346736,1403713577284237,2.301571e-01,-2.545956e-03,-1.126090e-02,-4.550981e-04,1.254390e-03,3.728517e-04
1403713577409237,1403713577346736,2.293685e-01,-1.415300e-03,-1.128647e-02,2.559211e-04,-2.782481e-04,-2.574816e-04
1403713577471740,1403713577409237,2.286560e-01,1.506767e-03,-1.271180e-02,1.644180e-03,-1.291960e-03,-7.637437e-04
1403713577534240,1403713577471740,2.249769e-01,1.196776e-03,-1.405236e-02,1.400979e-03,-1.492123e-03,-4.377704e-04
1403713577596743,1403713577534240,2.224561e-01,1.654006e-03,-1.406540e-02,4.797419e-04,-7.256368e-04,1.607411e-04
1403713577659246,1403713577596743,2.216287e-01,-2.639177e-03,-1.332006e-02,-1.290062e-03,4.532567e-04,7.449465e-04
1403713577721745,1403713577659246,2.213582e-01,-2.768243e-03,-1.179827e-02,-7.126273e-04,1.201413e-03,3.947308e-04
1403713577784246,1403713577721745,2.130567e-01,-3.547704e-03,-1.357127e-02,4.895000e-04,1.517754e-03,-3.516351e-04
1403713577846747,1403713577784246,2.116880e-01,-2.605961e-03,-1.384684e-02,-6.872420e-04,1.294659e-03,-3.898348e-04
1403713577909249,1403713577846747,1.911979e-01,-1.993927e-02,-8.876150e-03,-3.093847e-03,2.253323e-04,5.490022e-04
1403713577971750,1403713577909249,2.186804e-01,-3.850108e-03,-9.456686e-03,-2.075755e-03,-1.325665e-03,2.509520e-04
1403713578034251,1403713577971750,2.132970e-01,-2.523711e-03,-1.061568e-02,8.639260e-05,-1.549696e-03,1.693455e-04
1403713578096753,1403713578034251,2.093725e-01,-2.227756e-03,-1.215893e-02,2.529550e-04,-5.684037e-04,-8.085516e-06
1403713578159254,1403713578096753,2.064385e-01,-3.779388e-04,-1.318639e-02,5.043472e-04,9.636345e-04,2.127438e-04
1403713578221755,1403713578159254,2.059886e-01,2.717660e-03,-1.351746e-02,1.290429e-03,1.302913e-03,4.939751e-04
1403713578284261,1403713578221755,2.016908e-01,2.213650e-03,-1.373544e-02,2.087499e-03,6.175612e-04,6.913594e-04
1403713578346759,1403713578284261,2.022151e-01,1.812903e-03,-1.204463e-02,1.281718e-03,-8.750658e-06,5.331897e-04
1403713578409260,1403713578346759,2.030698e-01,7.174045e-04,-1.163837e-02,8.041017e-04,3.059536e-04,5.637797e-04
1403713578471763,1403713578409260,1.976488e-01,2.516534e-04,-1.223119e-02,5.333985e-06,5.400898e-04,8.122779e-04
1403713578534268,1403713578471763,1.973798e-01,-1.479876e-03,-1.037254e-02,-3.588239e-04,-3.448267e-05,8.993107e-04
1403713578596764,1403713578534268,1.952686e-01,-1.187913e-03,-1.258123e-02,4.572337e-04,-8.999444e-04,6.275658e-04
1403713578659269,1403713578596764,1.979249e-01,6.719554e-04,-1.209299e-02,7.298182e-04,-1.032731e-03,2.218719e-04
1403713578721766,1403713578659269,1.967515e-01,1.128727e-03,-1.141209e-02,4.218243e-04,-8.519306e-04,3.116688e-04
1403713578784266,1403713578721766,1.921982e-01,1.795264e-03,-1.117042e-02,8.515989e-04,2.091533e-04,7.115909e-04
1403713578846770,1403713578784266,1.900451e-01,6.636091e-04,-1.111307e-02,8.067042e-04,1.281785e-03,8.479153e-04
1403713578909267,1403713578846770,1.890369e-01,-2.305398e-03,-8.988030e-03,-8.163256e-04,1.413575e-03,4.256921e-04
1403713578971770,1403713578909267,1.860835e-01,-1.882406e-03,-1.005777e-02,-3.165803e-04,4.236979e-04,-4.628729e-04
1403713579034269,1403713578971770,1.865589e-01,-1.559198e-03,-9.692924e-03,-4.019744e-04,-5.786980e-04,-7.083480e-04
1403713579096770,1403713579034269,1.861414e-01,-6.928596e-04,-9.271908e-03,-1.932487e-04,-8.146200e-04,-2.080556e-04
1403713579159270,1403713579096770,1.829908e-01,1.057759e-03,-1.061860e-02,1.238078e-03,-4.579419e-04,4.456201e-04
1403713579284275,1403713579159270,3.636633e-01,9.425960e-04,-2.140707e-02,1.519393e-03,2.592680e-04,7.456940e-04
1403713579346771,1403713579284275,1.768822e-01,-1.559383e-03,-9.816169e-03,1.836294e-04,-4.873452e-04,-8.480927e-04
1403713579409271,1403713579346771,1.746111e-01,-2.175475e-03,-1.031230e-02,1.256672e-04,-1.347697e-05,-9.348186e-04
1403713579471773,1403713579409271,1.721738e-01,-1.919008e-03,-9.787913e-03,5.776601e-06,3.579448e-04,-5.822648e-04
1403713579596772,1403713579471773,3.425164e-01,-1.961318e-03,-1.794443e-02,5.835507e-04,-6.342044e-04,-9.340019e-04
1403713579659273,1403713579596772,1.676383e-01,-2.279604e-04,-1.021885e-02,1.242987e-03,4.732691e-04,-7.523596e-04
1403713579721774,1403713579659273,1.649402e-01,3.467251e-04,-1.093154e-02,1.629804e-03,8.756325e-04,-1.005197e-03
1403713579784274,1403713579721774,1.638270e-01,-1.053683e-04,-1.025634e-02,1.247701e-03,4.475100e-04,-1.004088e-03
1403713579846775,1403713579784274,1.628800e-01,-1.417772e-03,-9.577389e-03,4.298635e-04,-2.814666e-04,-7.504929e-04
1403713579909276,1403713579846775,1.605011e-01,-2.611794e-03,-9.826628e-03,-3.411870e-05,-3.918950e-04,-6.099701e-04
1403713579971776,1403713579909276,1.560582e-01,-4.431209e-03,-9.669470e-03,-1.199565e-03,3.531534e-04,-4.724313e-04
1403713580034277,1403713579971776,1.551712e-01,-5.730173e-03,-9.377653e-03,-1.938245e-03,8.121332e-04,-4.697790e-04
1403713580096778,1403713580034277,1.530338e-01,-4.328194e-03,-9.054998e-03,-1.790133e-03,5.891468e-04,-6.344903e-04
1403713580159279,1403713580096778,1.528468e-01,-5.178782e-03,-7.951896e-03,-1.218832e-03,5.141565e-04,-6.709741e-04
1403713580221781,1403713580159279,1.503400e-01,-2.691898e-03,-9.173430e-03,-1.458720e-04,3.852564e-04,-6.221880e-04
1403713580284281,1403713580221781,1.493847e-01,-1.348749e-03,-8.639015e-03,-3.609747e-05,3.454075e-04,-5.459623e-04
1403713580346781,1403713580284281,1.476192e-01,-1.405876e-03,-8.569997e-03,-1.866713e-04,2.644717e-04,-4.237706e-04
1403713580409282,1403713580346781,1.453376e-01,-7.086503e-04,-8.068527e-03,-1.987987e-05,1.046403e-04,-4.133405e-04
1403713580471783,1403713580409282,1.437501e-01,-1.920871e-03,-8.539547e-03,-2.826224e-04,1.373178e-04,-4.923097e-04
1403713580534283,1403713580471783,1.408066e-01,-3.489346e-03,-8.868914e-03,-1.502861e-03,4.893268e-04,-6.236714e-04
1403713580596784,1403713580534283,1.399528e-01,-6.209485e-03,-8.199475e-03,-2.984341e-03,4.881010e-04,-5.280860e-04
1403713580659285,1403713580596784,1.383029e-01,-6.412145e-03,-6.984945e-03,-2.935163e-03,-5.048549e-05,-6.009369e-04
1403713580721784,1403713580659285,1.370436e-01,-4.700330e-03,-6.369604e-03,-1.017867e-03,-4.178996e-04,-7.072078e-04
1403713580784286,1403713580721784,1.375684e-01,-3.129960e-03,-7.226670e-03,3.584023e-05,-6.895252e-04,-7.574312e-04
1403713580846787,1403713580784286,1.346025e-01,-1.497612e-03,-8.270611e-03,2.814092e-05,-9.718345e-04,-7.809033e-04
1403713580909291,1403713580846787,1.341221e-01,5.693239e-04,-7.088408e-03,8.542593e-04,-1.174043e-03,-5.682032e-04
1403713580971791,1403713580909291,1.343577e-01,1.838373e-03,-6.875627e-03,2.372987e-03,-9.116642e-04,-5.841190e-04
1403713581034293,1403713580971791,1.315350e-01,2.653187e-03,-7.917281e-03,3.099677e-03,7.766406e-05,-5.942744e-04
1403713581096793,1403713581034293,1.288280e-01,1.348847e-03,-8.789738e-03,2.140744e-03,3.298111e-04,-6.936783e-04
1403713581159293,1403713581096793,1.276948e-01,6.845792e-04,-8.425661e-03,1.186056e-03,-2.812996e-04,-5.537121e-04
1403713581221794,1403713581159293,1.268856e-01,-7.870208e-04,-8.303582e-03,4.546219e-04,-5.000928e-04,-2.306794e-04
1403713581284295,1403713581221794,1.251306e-01,-2.656113e-03,-8.334196e-03,-6.748773e-04,-2.637393e-04,-8.209571e-05
1403713581346796,1403713581284295,1.233794e-01,-4.508133e-03,-7.992759e-03,-1.772054e-03,-2.651337e-04,-2.210905e-04
1403713581409298,1403713581346796,1.227174e-01,-5.383996e-03,-7.223003e-03,-2.051374e-03,-6.988951e-04,-6.106068e-04
1403713581471800,1403713581409298,1.220842e-01,-4.836898e-03,-6.449629e-03,-1.798411e-03,-9.821876e-04,-9.820914e-04
1403713581534301,1403713581471800,1.190754e-01,-4.110175e-03,-6.942743e-03,-9.083894e-04,-9.970363e-04,-8.399744e-04
1403713581596802,1403713581534301,1.173120e-01,-2.848433e-03,-6.971965e-03,8.803372e-05,-7.934851e-04,-3.686509e-04
1403713581659304,1403713581596802,1.146407e-01,-1.186403e-03,-6.416336e-03,4.307421e-04,-6.030550e-04,-1.575309e-04
1403713581721805,1403713581659304,1.141336e-01,-4.637573e-04,-7.199290e-03,5.843130e-04,-3.724554e-04,-1.957601e-04
1403713581784307,1403713581721805,1.113110e-01,-1.101836e-03,-8.859384e-03,6.352846e-04,-3.013967e-04,-4.339336e-04
1403713581846809,1403713581784307,1.118793e-01,-1.720395e-03,-7.992075e-03,2.089386e-04,-5.712590e-04,-5.460982e-04
1403713581909310,1403713581846809,1.089081e-01,-2.065249e-03,-7.878589e-03,-5.538572e-04,-7.717962e-04,-3.424146e-04
1403713581971811,1403713581909310,1.097794e-01,-3.654210e-03,-6.908124e-03,-1.424596e-03,-4.427870e-04,1.409185e-04
1403713582034316,1403713581971811,1.043340e-01,-5.241006e-03,-7.014442e-03,-1.737122e-03,-7.711430e-05,6.725985e-05
1403713582096815,1403713582034316,1.037984e-01,-4.368264e-03,-6.357203e-03,-1.322975e-03,-1.965607e-05,-4.062616e-04
1403713582159316,1403713582096815,1.016029e-01,-3.192834e-03,-5.854149e-03,-8.343542e-04,-8.097776e-06,-7.781960e-04
1403713582221817,1403713582159316,1.004219e-01,-1.693432e-03,-6.281735e-03,-2.366751e-04,-1.434836e-04,-7.186743e-04
1403713582284319,1403713582221817,9.621036e-02,-2.873887e-04,-6.432314e-03,5.493234e-04,-1.820276e-04,-4.003055e-04
1403713582346823,1403713582284319,9.501246e-02,-1.164306e-04,-5.452301e-03,9.511950e-04,-5.328205e-05,-1.607780e-04
1403713582409321,1403713582346823,9.285931e-02,6.926869e-04,-5.652945e-03,1.500604e-03,7.070126e-05,-3.604414e-04
1403713582471823,1403713582409321,9.336338e-02,9.771589e-04,-5.435094e-03,1.652783e-03,-1.715215e-04,-7.171357e-04
1403713582534325,1403713582471823,8.849548e-02,-7.384188e-04,-6.213746e-03,8.891162e-04,-6.049972e-04,-7.457910e-04
1403713582596826,1403713582534325,8.787370e-02,-7.450655e-04,-6.708048e-03,6.767044e-04,-5.675924e-04,-5.900735e-04
1403713582659328,1403713582596826,8.662207e-02,-3.021299e-04,-6.070620e-03,6.412771e-04,-2.651696e-04,-3.869271e-04
1403713582721828,1403713582659328,8.361045e-02,2.081226e-05,-5.677758e-03,4.751019e-04,-2.197960e-04,-8.134420e-05
1403713582784332,1403713582721828,8.081154e-02,-6.859939e-04,-4.700892e-03,1.655640e-04,-2.555794e-04,5.208016e-05
1403713582846833,1403713582784332,7.796197e-02,-1.060261e-03,-5.363383e-03,7.878105e-05,-2.917778e-04,-1.723441e-04
1403713582909333,1403713582846833,7.482628e-02,-1.119159e-03,-5.542439e-03,-2.172121e-04,-1.127765e-04,-4.033951e-04
1403713582971833,1403713582909333,7.167507e-02,-1.582547e-03,-5.340493e-03,-6.384570e-04,1.222339e-04,-2.682304e-04
1403713583034333,1403713582971833,6.918275e-02,-2.369373e-03,-5.397330e-03,-9.785993e-04,2.411106e-04,-2.944127e-05
1403713583096835,1403713583034333,6.658539e-02,-2.640066e-03,-4.851449e-03,-5.946959e-04,3.154718e-04,7.449326e-05
1403713583159335,1403713583096835,6.559916e-02,-1.178394e-03,-4.080514e-03,-1.681102e-04,3.231862e-04,-9.240128e-05
1403713583221835,1403713583159335,6.401884e-02,-4.892607e-04,-4.030851e-03,-2.988412e-05,3.273436e-04,-1.081500e-04
1403713583284337,1403713583221835,6.170256e-02,-1.778533e-04,-3.642557e-03,2.500820e-04,3.964616e-04,-8.709001e-05
1403713583346837,1403713583284337,5.785854e-02,4.535477e-04,-4.206115e-03,5.564373e-04,5.683216e-04,-2.410344e-04
1403713583409336,1403713583346837,5.519290e-02,3.806080e-05,-3.926930e-03,4.622551e-04,6.155853e-04,-2.760518e-04
1403713583471841,1403713583409336,5.293429e-02,-1.068384e-04,-3.308960e-03,3.391069e-04,5.064524e-04,-2.425721e-04
1403713583534338,1403713583471841,5.177338e-02,-5.917040e-04,-3.064001e-03,9.905423e-05,3.925185e-04,-1.700867e-04
1403713583596838,1403713583534338,4.947394e-02,-8.049132e-04,-2.751561e-03,-2.865134e-04,4.084860e-04,-3.130315e-05
1403713583659340,1403713583596838,4.962500e-02,-4.112119e-04,-2.471309e-03,-2.481280e-04,3.770424e-04,9.989188e-05
1403713583721841,1403713583659340,4.575978e-02,-1.102286e-04,-3.226142e-03,-9.045132e-05,2.175525e-04,2.509638e-04
1403713583784343,1403713583721841,4.446171e-02,4.406859e-04,-2.872895e-03,-4.955432e-05,1.101965e-04,3.503633e-04
1403713583846845,1403713583784343,3.284579e-04,1.795968e-05,4.764166e-05,2.304630e-05,-2.236733e-05,6.679486e-05
1403713583909346,1403713583846845,4.124266e-02,5.057464e-04,-2.656982e-03,1.849226e-04,6.879043e-05,1.322065e-04
1403713583971847,1403713583909346,3.849231e-02,3.831709e-04,-2.926519e-03,2.090562e-04,2.151604e-04,4.524864e-05
1403713584034349,1403713583971847,4.535515e-05,3.981788e-05,9.282307e-05,3.020635e-05,1.786884e-04,-1.812810e-05
1403713584096850,1403713584034349,3.399805e-02,8.257796e-05,-2.734964e-03,3.015868e-05,1.775622e-04,1.966459e-04
1403713584159353,1403713584096850,3.212695e-02,2.414746e-04,-2.511869e-03,7.627344e-06,1.266467e-04,2.030483e-04
1403713584221854,1403713584159353,3.258823e-02,6.652032e-05,-1.707602e-03,-8.567330e-05,1.075159e-04,1.041925e-04
1403713584284355,1403713584221854,2.949998e-02,1.041880e-04,-1.982665e-03,-8.253497e-05,8.425073e-05,-2.878988e-05
1403713584346859,1403713584284355,2.731719e-02,9.984318e-05,-1.921228e-03,-4.537752e-05,9.410426e-05,-5.243409e-05
1403713584409361,1403713584346859,2.641093e-02,4.226856e-05,-1.857232e-03,4.408207e-05,7.298936e-05,5.128174e-05
1403713584471863,1403713584409361,1.471474e-04,-8.387684e-06,1.634552e-05,1.692084e-04,5.354046e-05,1.048491e-04
1403713584534361,1403713584471863,5.604088e-03,-8.307153e-05,-4.702953e-05,4.649544e-05,2.318895e-05,1.677933e-04
1403713584596862,1403713584534361,7.405933e-05,-3.473222e-05,2.083674e-05,-2.739461e-05,8.334838e-05,4.528086e-05
1403713584659366,1403713584596862,1.961000e-02,-2.118445e-04,-1.560495e-03,-9.714295e-06,8.761326e-05,3.800945e-06
1403713584721864,1403713584659366,2.213765e-04,1.788468e-04,1.233893e-04,-5.430593e-05,7.379373e-05,-1.033900e-04
1403713584784369,1403713584721864,3.310959e-04,3.648232e-05,1.329597e-04,-7.104978e-05,2.397705e-05,-4.866561e-05
1403713584846867,1403713584784369,1.008965e-04,-1.190277e-04,5.962905e-05,-6.393110e-05,7.091728e-05,6.868231e-05
1403713584909369,1403713584846867,4.461993e-04,-8.919924e-05,1.712569e-04,3.388547e-05,1.082554e-04,7.175967e-05
1403713584971870,1403713584909369,1.475076e-02,2.989635e-04,-1.481493e-03,-8.230417e-06,8.343058e-05,5.147269e-05
1403713585034372,1403713584971870,4.259575e-04,1.257902e-04,1.549129e-04,-3.035523e-05,1.290752e-04,-6.300295e-05
1403713585096873,1403713585034372,2.071248e-04,8.006967e-05,1.846790e-05,2.576596e-06,4.074034e-05,-3.785526e-05
1403713585159375,1403713585096873,3.590294e-05,7.116318e-05,-1.266697e-05,-4.594623e-05,2.880586e-05,-3.461285e-05
1403713585221878,1403713585159375,5.829237e-05,-6.399773e-05,6.015849e-05,-1.536503e-04,3.866680e-05,2.743189e-06
1403713585284380,1403713585221878,6.630727e-06,-1.368944e-05,2.834447e-05,-8.901893e-05,6.171581e-05,9.181879e-07
1403713585346880,1403713585284380,1.410996e-04,7.509190e-05,5.725789e-05,-2.456632e-05,3.048536e-05,-3.782926e-05
1403713585409382,1403713585346880,4.835303e-06,6.422422e-06,5.796721e-06,-5.014918e-05,-6.792703e-06,-4.107808e-05
1403713585471884,1403713585409382,5.595582e-04,1.502028e-04,1.817056e-04,3.369616e-05,-1.500851e-05,-2.478134e-05
1403713585534383,1403713585471884,3.839887e-03,1.757167e-04,-7.114111e-04,4.064071e-05,-2.314274e-05,1.351451e-05
1403713585596888,1403713585534383,9.728007e-05,-7.082305e-05,5.006959e-06,-3.018991e-05,-2.079518e-05,2.219048e-05
1403713585659386,1403713585596888,3.111138e-04,8.791104e-05,1.240583e-04,-2.479136e-05,1.988174e-05,-1.545019e-06
1403713585721888,1403713585659386,1.850863e-04,7.860259e-05,4.403829e-05,-2.821945e-06,-8.274943e-06,-2.603135e-05
1403713585784389,1403713585721888,3.889441e-05,7.498101e-05,-7.668818e-05,-1.878713e-05,-6.131481e-05,-5.296964e-05
1403713585846893,1403713585784389,9.564657e-06,-6.530398e-06,-4.220214e-05,-2.162655e-05,-8.101227e-05,-1.357764e-05
1403713585909395,1403713585846893,-1.658551e-04,-8.878786e-05,2.583719e-04,2.247852e-05,2.496446e-04,5.217974e-05
1403713585971893,1403713585909395,-2.455893e-04,-1.184623e-05,4.415349e-04,4.067752e-05,4.145497e-04,3.856522e-05
1403713586034394,1403713585971893,-7.911662e-05,3.877640e-05,5.200610e-05,6.155864e-05,1.877909e-04,-2.715027e-05
1403713586096896,1403713586034394,1.390454e-04,1.304565e-04,-2.130011e-04,7.766445e-05,-1.737928e-04,-5.039147e-05
1403713586159397,1403713586096896,5.301088e-04,8.504394e-05,-1.626704e-04,4.802050e-05,-3.657304e-04,4.255555e-06
1403713586221899,1403713586159397,1.299753e-05,-1.426189e-05,-1.925207e-05,-2.851936e-05,-7.531254e-05,2.860211e-05
1403713586284400,1403713586221899,-1.534069e-04,-4.270803e-05,2.871584e-04,-1.448639e-05,2.854649e-04,2.760589e-05
1403713586346902,1403713586284400,-1.254520e-04,2.937066e-05,1.952835e-04,1.712226e-05,1.899527e-04,-3.022781e-05
1403713586409403,1403713586346902,1.932497e-04,-1.762946e-05,-1.462006e-04,-2.774425e-05,-1.544237e-04,-2.457470e-05
1403713586471904,1403713586409403,3.222561e-04,-2.974630e-05,-2.021601e-04,-5.824976e-05,-2.462289e-04,2.375598e-05
1403713586534406,1403713586471904,4.728355e-05,3.269546e-06,-8.725315e-05,4.767992e-05,-5.009373e-05,2.063162e-05
1403713586596907,1403713586534406,-2.200266e-05,1.609822e-05,2.397621e-05,7.050402e-05,9.743524e-05,2.604909e-06
1403713586659409,1403713586596907,-6.412814e-05,9.183727e-06,1.086639e-04,-3.024446e-07,1.112469e-04,-1.722281e-05
1403713586721910,1403713586659409,-8.316620e-06,3.902404e-06,-1.240481e-06,-5.571206e-06,2.026733e-06,1.919400e-07
1403713586784412,1403713586721910,2.880295e-05,8.283403e-06,-1.179008e-05,-9.674861e-06,-3.940181e-05,4.062182e-06
1403713586846913,1403713586784412,6.396844e-05,-2.535859e-05,-3.243427e-05,-3.105774e-05,-5.978003e-05,1.131715e-06
1403713586909415,1403713586846913,-5.374326e-05,-1.973771e-05,-2.606692e-05,-1.330233e-05,-1.669966e-05,-2.659825e-06
1403713586971916,1403713586909415,9.211272e-06,5.515140e-06,7.336509e-06,6.199068e-06,1.250143e-05,-3.025055e-06
1403713587034418,1403713586971916,7.216162e-05,3.675688e-05,5.726895e-05,1.888174e-05,5.283755e-05,-9.657826e-07
1403713587096919,1403713587034418,-1.284377e-05,-5.535034e-06,4.257106e-07,7.496464e-06,7.591430e-06,3.402627e-06
1403713587159420,1403713587096919,1.994059e-04,8.241347e-05,8.851288e-06,2.627572e-05,-4.217064e-05,-1.024534e-06
1403713587221922,1403713587159420,7.072525e-06,-3.298348e-05,-6.494904e-05,-2.710440e-05,-6.368762e-05,-8.360736e-06
1403713587284424,1403713587221922,1.338614e-06,3.479279e-06,-1.878516e-07,-1.058437e-05,-1.430596e-07,-8.292123e-06
1403713587346925,1403713587284424,-1.931977e-06,-7.695778e-07,4.855957e-05,1.778810e-05,3.582807e-05,5.008526e-06
1403713587409428,1403713587346925,-3.765657e-06,1.067187e-05,3.481284e-05,-9.555903e-06,2.519697e-05,4.306538e-06
1403713587471927,1403713587409428,5.513090e-05,2.729754e-05,1.469799e-05,2.303762e-06,-4.405375e-06,-4.731734e-06
1403713587534429,1403713587471927,-7.092627e-06,8.070000e-06,-2.816930e-05,1.901604e-05,-1.747431e-05,-6.350867e-06
1403713587596931,1403713587534429,5.932288e-05,1.230632e-05,5.001562e-06,-1.902188e-06,-1.247241e-05,3.065883e-06
1403713587659432,1403713587596931,-1.001564e-05,-2.378528e-06,1.794706e-06,1.442094e-06,2.643252e-06,2.597084e-06
1403713587721933,1403713587659432,-2.193707e-06,-1.459662e-06,1.027076e-05,-1.275965e-05,1.520211e-05,4.181760e-06
1403713587784435,1403713587721933,7.408302e-05,1.755560e-05,7.063028e-05,-1.736094e-05,1.502484e-05,-3.966376e-06
1403713587909436,1403713587784435,1.600808e-05,6.645351e-06,-6.873879e-06,-6.071317e-06,-2.393816e-05,-5.627561e-06
1403713587971938,1403713587909436,2.300614e-04,-4.727793e-05,7.232544e-05,-2.115249e-06,-2.300890e-06,5.367588e-06
1403713588034442,1403713587971938,-9.925155e-07,1.997052e-06,4.941391e-07,1.066289e-05,2.999179e-06,2.347298e-06
1403713588096941,1403713588034442,-6.402678e-06,-4.695285e-08,4.843225e-06,-1.201312e-05,8.795197e-06,-1.933216e-06
1403713588221942,1403713588096941,1.224455e-06,-3.192231e-06,3.528400e-07,-1.431992e-05,-4.157758e-06,4.984799e-06
1403713588284446,1403713588221942,5.506373e-06,-1.282463e-05,-1.228251e-05,-1.624716e-05,-9.758778e-06,-2.049640e-09
1403713588346945,1403713588284446,4.786445e-06,2.103148e-06,-4.922972e-07,-1.884994e-06,-5.465621e-06,-5.406411e-06
1403713588409446,1403713588346945,-3.681498e-07,2.118411e-06,1.623491e-06,4.817695e-06,6.974037e-06,-4.137449e-06
1403713588534451,1403713588409446,-2.428224e-05,-9.276444e-06,1.954312e-05,-3.962078e-06,6.481188e-06,5.598326e-06
1403713588596951,1403713588534451,2.100002e-05,-1.183847e-05,2.223016e-06,8.301774e-06,-8.714674e-06,3.671841e-06
1403713588659451,1403713588596951,-4.698648e-06,1.250808e-05,6.455185e-07,8.129756e-06,-1.024055e-06,-2.964680e-06
1403713588784452,1403713588659451,-2.168300e-05,1.360445e-05,-5.629152e-06,-1.600747e-06,1.716569e-06,-1.669315e-06
1403713588846953,1403713588784452,-8.399060e-07,6.160470e-07,5.238471e-07,1.940516e-06,3.295453e-06,2.414155e-07
1403713588909455,1403713588846953,-1.087725e-05,7.246230e-06,-4.325388e-06,1.216054e-06,-7.553374e-07,-3.179254e-06
1403713588971956,1403713588909455,1.008870e-06,3.119119e-06,-3.529185e-06,-3.022434e-06,-1.126138e-05,2.547877e-06
1403713589096957,1403713588971956,-4.726031e-06,-2.892565e-06,-8.527208e-06,-3.600887e-06,-1.250474e-06,9.189823e-07
1403713589159459,1403713589096957,-2.212474e-06,-8.901873e-07,2.989605e-06,1.910320e-06,5.981969e-06,1.344284e-06
1403713589221961,1403713589159459,1.401924e-06,-2.016216e-06,2.291263e-07,-1.428160e-05,-6.348913e-06,-2.868999e-07
1403713589284463,1403713589221961,4.126064e-05,-2.189801e-05,1.132786e-05,5.844493e-07,-6.763564e-06,-1.299068e-06
1403713589409464,1403713589284463,9.494915e-07,-1.935026e-06,-1.125699e-06,1.227363e-07,-3.108237e-06,5.976501e-06
1403713589471965,1403713589409464,2.770014e-05,6.912631e-06,1.534761e-05,1.171932e-06,1.067502e-05,-1.413135e-06
1403713589534466,1403713589471965,5.748339e-05,8.053162e-06,2.534672e-05,1.894530e-06,4.205536e-06,9.131189e-07
1403713589596968,1403713589534466,1.902196e-05,1.165273e-06,7.998409e-06,1.337271e-06,-3.429772e-07,-1.616897e-07
1403713589721970,1403713589596968,2.194412e-05,-4.046787e-05,2.927928e-05,-1.067962e-05,-8.509523e-06,6.139558e-06
1403713589784471,1403713589721970,-9.892671e-06,1.294772e-05,4.777824e-06,3.797546e-06,3.197152e-06,-2.803657e-06
1403713589846972,1403713589784471,1.570234e-04,-1.397218e-05,7.223956e-05,-2.893632e-06,7.282483e-06,2.328543e-06
1403713589909474,1403713589846972,-1.387060e-04,-7.395403e-05,-5.346870e-05,-3.386851e-06,-1.309220e-06,5.392225e-06
1403713590034478,1403713589909474,7.278324e-05,1.589990e-05,2.426414e-05,-3.201212e-06,-4.148968e-06,4.070295e-06
1403713590096979,1403713590034478,7.840260e-06,-1.470802e-07,-2.407649e-07,-2.532377e-06,-1.565073e-06,-8.583882e-07
1403713590159478,1403713590096979,-1.993384e-05,-3.373824e-05,1.283651e-06,-1.493758e-06,2.753096e-06,6.181162e-06
1403713590221980,1403713590159478,2.083697e-06,-8.703543e-06,8.985965e-06,-1.260660e-06,9.576532e-07,5.040473e-07
1403713590346982,1403713590221980,5.229444e-05,2.045448e-05,1.753341e-05,-5.484482e-06,-3.337424e-06,-2.317777e-06
1403713590409483,1403713590346982,8.694413e-06,-5.410029e-06,2.394751e-06,2.094453e-06,-2.918011e-07,8.301128e-07
1403713590471984,1403713590409483,-2.411856e-06,-1.145421e-06,-1.849476e-06,-3.235101e-07,-1.150447e-06,1.760987e-06
1403713590534486,1403713590471984,-9.055937e-07,9.628578e-07,7.395563e-07,8.141875e-07,-2.043279e-07,-3.477785e-06
1403713590659488,1403713590534486,-1.253200e-06,-2.661134e-06,3.289354e-06,7.175406e-07,4.117559e-06,-3.551073e-06
1403713590721988,1403713590659488,1.110220e-05,-1.269466e-05,6.453598e-07,-3.283110e-06,-5.211918e-06,2.810907e-06
1403713590784490,1403713590721988,-7.294821e-05,3.712297e-05,-2.800831e-05,-2.917186e-06,-4.797023e-06,-1.689358e-06
1403713590909491,1403713590784490,-3.967655e-05,-1.505428e-05,-1.489049e-05,9.320705e-06,1.622999e-06,9.743539e-07
1403713590971992,1403713590909491,9.264534e-07,-1.123656e-06,-8.073237e-07,-8.257657e-06,-2.850328e-06,1.510913e-07
1403713591034494,1403713590971992,2.798152e-06,1.540032e-06,-9.581106e-07,-4.940399e-06,-1.462782e-06,-7.247003e-07
1403713591159497,1403713591034494,-9.124250e-06,2.698953e-06,-4.802877e-06,2.976167e-06,-1.453425e-06,-1.371228e-06
1403713591221997,1403713591159497,3.535852e-07,-1.046769e-06,6.047970e-07,2.795609e-06,3.128924e-06,8.019452e-07
1403713591284499,1403713591221997,5.229480e-05,-3.218665e-06,1.671276e-05,-6.334193e-06,1.737803e-06,4.046481e-07
1403713591409499,1403713591284499,-8.478260e-06,-4.894276e-06,-3.376618e-06,3.891028e-07,-7.890770e-06,-5.423061e-07
1403713591472002,1403713591409499,5.033043e-06,-1.075562e-07,2.495297e-06,2.556084e-06,1.432935e-06,2.979291e-07
1403713591534503,1403713591472002,-7.451872e-06,-2.779859e-06,-2.217035e-07,2.607237e-06,2.626779e-06,-2.861189e-06
1403713591597004,1403713591534503,-5.067537e-06,-2.865004e-06,-2.383326e-06,-7.547931e-06,-2.588178e-06,2.220491e-06
1403713591722006,1403713591597004,-4.082344e-05,-2.152704e-05,-1.522757e-05,-9.689715e-06,-4.767932e-06,-2.020419e-06
1403713591784507,1403713591722006,3.121016e-05,-9.773865e-06,4.883576e-07,-7.228423e-07,1.596889e-06,1.461157e-06
1403713591847008,1403713591784507,8.002597e-07,-3.922763e-08,-2.676665e-07,2.900165e-06,-2.991667e-06,2.140061e-06
1403713591909510,1403713591847008,-4.330114e-06,-4.236948e-07,2.421399e-08,7.946494e-06,8.713781e-07,4.824617e-07
1403713592034511,1403713591909510,1.401725e-06,8.937896e-08,-1.506004e-06,4.344564e-06,-3.687130e-06,-1.206292e-07
1403713592097012,1403713592034511,-4.031882e-07,-3.634797e-07,-2.560504e-06,4.417934e-06,-1.980569e-06,-7.132977e-07
1403713592159514,1403713592097012,-2.168837e-05,-1.016658e-05,-8.053510e-06,-8.833952e-06,2.332216e-06,-8.458363e-07
1403713592222017,1403713592159514,1.454676e-05,-7.835360e-06,7.396495e-06,-1.020578e-05,3.697300e-06,-1.959030e-06
1403713592347019,1403713592222017,1.054316e-05,-3.544790e-06,1.840933e-06,-1.312376e-05,-5.564787e-06,-1.261874e-07
1403713592409519,1403713592347019,4.237578e-07,1.195882e-06,1.296142e-06,-4.436999e-07,3.415755e-07,3.196113e-06
1403713592472020,1403713592409519,1.741329e-06,2.160914e-06,1.225069e-06,-1.913788e-06,-3.034770e-06,-4.117377e-06
1403713592534521,1403713592472020,1.782647e-06,-9.080142e-07,-5.761043e-07,-1.524359e-06,-2.787908e-06,3.041623e-08
1403713592659523,1403713592534521,4.173774e-06,2.667551e-06,2.029292e-06,-5.135087e-06,-4.585206e-07,1.876429e-06
1403713592722024,1403713592659523,-1.141870e-06,-1.161640e-07,-7.337839e-07,-3.446102e-06,7.427125e-07,3.155543e-06
1403713592784526,1403713592722024,-1.282085e-06,3.970467e-07,-3.144800e-07,-1.426211e-06,-2.568172e-06,-1.767076e-06
1403713592847029,1403713592784526,1.824373e-06,-9.184905e-07,-1.255980e-06,3.837382e-06,-1.694750e-06,2.126027e-08
1403713592972028,1403713592847029,2.990681e-06,6.745674e-06,6.176753e-07,3.199432e-06,-5.088976e-07,-2.446215e-06
1403713593034530,1403713592972028,-1.590702e-05,-9.340010e-06,-9.221098e-06,1.251703e-06,-2.236820e-06,1.710435e-06
1403713593097032,1403713593034530,5.260994e-06,8.569223e-06,2.936027e-06,-4.105241e-06,-8.576476e-07,-6.142326e-06
1403713593159534,1403713593097032,-1.529677e-07,-3.147689e-07,2.695881e-07,-4.738209e-06,4.250604e-06,2.806347e-06
1403713593284535,1403713593159534,6.517693e-06,3.250062e-06,-4.205967e-07,9.688866e-06,-2.735311e-06,-7.107854e-07
1403713593347037,1403713593284535,2.614248e-06,1.425404e-06,5.325047e-06,1.113289e-06,8.882322e-07,-4.574108e-07
1403713593409540,1403713593347037,3.028613e-04,1.223972e-04,1.071873e-04,1.754148e-05,2.681487e-06,-1.230264e-05
1403713593472041,1403713593409540,-3.081251e-07,-1.041054e-06,1.678440e-07,-3.626155e-06,-2.453109e-07,2.533270e-06
1403713593597041,1403713593472041,5.263206e-06,2.069961e-06,2.813213e-06,-2.713554e-06,1.071038e-06,-1.277251e-06
1403713593659543,1403713593597041,-2.671109e-05,1.732918e-05,-1.269344e-05,6.928192e-06,-3.426433e-06,-4.789380e-06
1403713593722044,1403713593659543,5.559921e-07,-3.862688e-07,-2.788190e-06,4.951175e-06,-1.216753e-06,4.815405e-06
1403713593847048,1403713593722044,1.837590e-07,-3.575155e-06,2.761365e-06,-6.280465e-06,1.796826e-06,-5.902148e-07
1403713593909547,1403713593847048,1.975811e-06,-2.177548e-07,9.273269e-07,5.336615e-07,7.472938e-07,5.163028e-07
1403713593972048,1403713593909547,-3.569045e-06,-1.353428e-06,1.774975e-06,-5.195309e-06,1.033760e-06,8.439361e-07
1403713594034550,1403713593972048,4.487078e-05,1.586571e-05,1.695330e-05,-2.970293e-06,5.255578e-07,1.570402e-08
1403713594159551,1403713594034550,-1.238397e-05,3.248203e-06,-7.265015e-07,-1.025081e-05,-2.318695e-06,-1.075374e-06
1403713594222053,1403713594159551,-1.411443e-06,5.501824e-07,-8.523201e-07,3.673850e-06,3.080658e-06,8.163348e-07
1403713594284554,1403713594222053,5.812691e-06,-2.284167e-06,-1.460907e-06,-3.885456e-06,-1.266764e-06,4.179241e-07
1403713594409556,1403713594284554,6.418308e-06,6.137552e-07,-2.886769e-06,-3.050658e-06,-3.696915e-06,3.022912e-06
1403713594472057,1403713594409556,-1.071711e-04,3.606145e-05,-1.946165e-05,3.382740e-06,2.073833e-06,-2.523164e-06
1403713594534559,1403713594472057,7.794868e-05,-5.710408e-05,2.734322e-05,-3.244407e-06,1.418225e-06,4.048943e-06
1403713594659561,1403713594534559,-4.235410e-07,-2.495666e-06,8.111470e-07,-1.269106e-06,1.086027e-06,1.478319e-06
1403713594722062,1403713594659561,-9.661229e-07,-2.171351e-06,5.393552e-07,-6.787857e-06,-2.952589e-07,2.143712e-06
1403713594784563,1403713594722062,2.868286e-06,1.086070e-06,-5.728172e-07,7.555668e-06,-1.843877e-06,-7.463093e-07
1403713594909564,1403713594784563,1.024286e-06,-1.483177e-06,6.039665e-06,-1.700305e-05,6.810684e-07,4.026602e-06
1403713594972066,1403713594909564,6.971700e-06,1.156435e-06,3.770734e-06,-7.845867e-07,2.190801e-06,1.907361e-06
1403713595034568,1403713594972066,2.510802e-06,-1.362014e-06,5.594375e-07,-6.955527e-06,-7.151495e-07,2.337394e-06
1403713595097069,1403713595034568,1.645336e-08,-2.550270e-07,7.460473e-07,-3.956820e-06,1.134885e-07,-3.264369e-07
1403713595222071,1403713595097069,2.754056e-05,1.227649e-05,8.864081e-06,8.371911e-06,1.133238e-06,-3.518348e-06
1403713595284572,1403713595222071,2.495831e-05,-1.697297e-05,9.372258e-06,-6.884265e-06,-1.540782e-07,1.791870e-06
1403713595347073,1403713595284572,3.583356e-06,2.281832e-05,3.659985e-06,5.047549e-06,2.325026e-06,1.944635e-06
1403713595472075,1403713595347073,-3.287907e-05,2.551888e-05,-1.568075e-05,2.589096e-06,-6.377335e-06,-1.892896e-06
1403713595534576,1403713595472075,-2.826185e-05,-6.769609e-06,-7.448565e-06,-9.910613e-06,2.329075e-06,-2.403700e-07
1403713595597077,1403713595534576,-3.957677e-06,-2.275279e-06,-1.364195e-06,2.147719e-06,6.009405e-07,-2.310175e-06
1403713595722079,1403713595597077,4.373181e-06,2.681549e-07,4.565593e-06,-5.050994e-06,-4.256700e-06,1.809950e-06
1403713595784580,1403713595722079,-4.865835e-06,-4.457297e-06,5.238914e-06,-5.155169e-06,2.267488e-06,2.327687e-06
1403713595847081,1403713595784580,9.811721e-05,-1.279417e-05,3.481262e-05,1.780143e-06,-1.402863e-07,8.068352e-07
1403713595972083,1403713595847081,8.219452e-08,-4.229611e-07,1.320915e-06,-1.106955e-05,-1.909999e-07,-2.989418e-06
1403713596034585,1403713595972083,2.918220e-05,-1.843993e-05,1.080711e-05,-1.135816e-06,3.542442e-07,8.170966e-07
1403713596097086,1403713596034585,-1.322040e-06,7.149561e-07,-1.614726e-06,1.235059e-06,-2.741767e-06,1.127550e-06
1403713596159588,1403713596097086,3.835796e-06,5.895430e-06,6.742728e-06,6.555604e-07,4.490511e-07,2.990889e-06
1403713596284589,1403713596159588,1.598823e-06,2.159194e-06,1.931207e-07,9.053963e-06,-3.084600e-06,-1.041019e-06
1403713596347090,1403713596284589,7.952587e-07,1.427948e-07,-3.567767e-07,4.915316e-06,-9.376995e-07,-2.125228e-06
1403713596409595,1403713596347090,2.838492e-06,9.332597e-07,5.518763e-07,-1.954703e-07,-1.086794e-06,1.447477e-06
1403713596472093,1403713596409595,-4.021345e-06,-1.718768e-06,-2.066582e-06,4.240558e-06,5.830916e-08,-1.016279e-06
1403713596597094,1403713596472093,1.399042e-05,3.963431e-06,5.520067e-06,-8.142123e-06,-1.941808e-06,4.979026e-07
1403713596659596,1403713596597094,4.793366e-05,-2.899105e-05,1.922565e-05,-6.792126e-06,1.637836e-06,1.507604e-06
1403713596722097,1403713596659596,2.788552e-06,1.514069e-06,-9.211671e-07,-3.540537e-06,-4.633260e-06,2.686333e-07
1403713596784599,1403713596722097,4.578691e-06,1.766692e-06,1.598463e-07,3.971432e-06,-2.669131e-07,8.864799e-08
1403713596909602,1403713596784599,1.068586e-05,4.366053e-06,3.244621e-06,-4.788923e-06,3.358580e-06,1.015184e-06
1403713596972102,1403713596909602,2.603925e-06,2.975966e-07,9.367297e-07,-5.735720e-06,-4.740317e-06,4.438241e-07
1403713597034603,1403713596972102,-1.000168e-06,-8.662132e-08,-1.572496e-07,1.481502e-06,1.987482e-07,-4.228144e-07
1403713597097106,1403713597034603,-3.564873e-07,3.438110e-07,-2.648406e-07,5.063061e-06,1.862852e-06,2.696583e-06
1403713597222109,1403713597097106,-6.437362e-06,-4.049786e-06,-2.737977e-06,5.190576e-07,-2.740580e-07,4.144552e-06
1403713597284607,1403713597222109,-7.864152e-05,2.536421e-05,-3.660559e-05,3.056542e-06,-1.207037e-06,-3.869078e-06
1403713597347109,1403713597284607,2.862267e-06,3.652870e-06,2.769406e-06,1.001500e-05,1.468562e-06,1.327700e-07
1403713597409611,1403713597347109,2.955831e-05,1.170058e-05,9.849779e-06,1.100098e-06,-2.571622e-06,-3.201707e-07
1403713597534612,1403713597409611,-7.741101e-07,-1.165138e-06,1.418663e-07,1.849405e-06,1.489042e-06,8.061141e-07
1403713597597113,1403713597534612,-3.577461e-07,-4.382265e-07,-8.770111e-07,5.339965e-07,-7.306409e-07,1.840771e-06
1403713597659615,1403713597597113,-4.454003e-06,6.359218e-07,-5.498230e-06,-2.684216e-06,-2.259207e-06,1.727463e-06
1403713597722116,1403713597659615,-2.238971e-06,1.570092e-06,-1.004163e-06,7.613032e-07,-1.402332e-06,-1.885543e-06
1403713597847117,1403713597722116,8.778363e-06,-1.474928e-06,2.864357e-06,7.237159e-06,-1.889240e-06,2.917307e-06
1403713597909619,1403713597847117,-4.082388e-05,2.274698e-05,-1.838266e-05,5.956553e-06,-1.136787e-06,-9.126318e-07
1403713597972122,1403713597909619,-6.976803e-07,-1.386631e-07,-3.313813e-06,-2.688844e-06,-3.483452e-06,2.517423e-06
1403713598034622,1403713597972122,-8.192608e-07,1.804785e-05,-5.296263e-06,4.698553e-06,-3.341300e-06,-5.431576e-06
1403713598159623,1403713598034622,2.460610e-06,3.510535e-07,1.625013e-07,1.628686e-06,8.150196e-07,3.740107e-06
1403713598222126,1403713598159623,-7.617338e-06,3.029314e-06,-1.436059e-06,3.644881e-06,9.189955e-07,-4.343414e-06
1403713598284631,1403713598222126,1.476276e-06,-6.686165e-07,3.141091e-08,-4.291873e-06,-2.999301e-06,2.726077e-07
1403713598347128,1403713598284631,-1.714199e-09,-2.255846e-06,4.153705e-07,-3.732673e-06,-1.315488e-08,4.942762e-06
1403713598472130,1403713598347128,-1.111927e-04,4.890470e-05,-3.640186e-05,3.272885e-06,-3.432699e-06,-8.741627e-06
1403713598534631,1403713598472130,-9.713396e-08,1.804079e-07,3.281389e-08,7.195191e-08,-9.248109e-07,-4.407485e-08
1403713598597133,1403713598534631,-1.664283e-05,6.032338e-06,-6.515826e-06,4.310105e-06,-3.422876e-06,-4.101255e-07
1403713598659634,1403713598597133,1.852553e-06,-2.713641e-06,5.834904e-07,-6.999782e-06,-1.164221e-06,6.645278e-06
1403713598784636,1403713598659634,1.367748e-06,-2.951025e-07,-5.078737e-07,3.719558e-07,-7.692425e-07,1.855702e-06
1403713598847137,1403713598784636,8.451888e-06,2.410558e-06,3.837660e-06,-5.451781e-07,-2.564928e-06,1.864793e-06
1403713598909639,1403713598847137,7.732208e-05,3.471978e-05,1.985915e-05,-4.372239e-06,-1.768577e-06,-3.195897e-07
1403713599034639,1403713598909639,-2.332365e-06,2.558871e-06,-2.268975e-06,7.672440e-06,-2.377569e-06,-5.737772e-07
1403713599097141,1403713599034639,1.454589e-04,1.175990e-05,5.430368e-05,-7.642461e-08,8.980168e-07,-1.344092e-06
1403713599159642,1403713599097141,1.109588e-06,2.677748e-07,1.414325e-06,-8.237897e-07,-1.774880e-06,-2.580908e-07
1403713599222144,1403713599159642,-1.200245e-05,-6.083520e-06,-6.289810e-06,1.855198e-06,2.097763e-06,4.604779e-06
1403713599347146,1403713599222144,-1.215195e-06,6.068169e-06,-1.621998e-06,8.475608e-06,-1.593060e-06,-4.446268e-06
